{
"type": "FeatureCollection",
"name": "hotosm_zaf_populated_places_points_geojson",
"features": [
{ "type": "Feature", "properties": { "name": "Swartkop", "name:en": null, "place": "hamlet", "landuse": null, "population": null, "is_in": "Northern Cape, South Africa", "source": "sagns", "name:af": null, "name:nr": null, "name:st": null, "name:nso": null, "name:ssw": null, "name:ts": null, "name:tn": null, "name:ve": null, "name:xh": null, "name:zu": null, "osm_id": 262717644, "osm_type": "nodes" }, "geometry": { "type": "Point", "coordinates": [ 21.0616667, -30.1322222 ] } },
{ "type": "Feature", "properties": { "name": "Mitford", "name:en": null, "place": "hamlet", "landuse": null, "population": null, "is_in": "Eastern Cape, South Africa", "source": "sagns", "name:af": null, "name:nr": null, "name:st": null, "name:nso": null, "name:ssw": null, "name:ts": null, "name:tn": null, "name:ve": null, "name:xh": null, "name:zu": null, "osm_id": 262710149, "osm_type": "nodes" }, "geometry": { "type": "Point", "coordinates": [ 26.5288889, -31.9786111 ] } },
{ "type": "Feature", "properties": { "name": "Frankfurt", "name:en": null, "place": "village", "landuse": null, "population": null, "is_in": "Mpumalanga, South Africa", "source": "sagns", "name:af": null, "name:nr": null, "name:st": null, "name:nso": null, "name:ssw": null, "name:ts": null, "name:tn": null, "name:ve": null, "name:xh": null, "name:zu": null, "osm_id": 262720192, "osm_type": "nodes" }, "geometry": { "type": "Point", "coordinates": [ 30.7986057, -24.6277761 ] } },
{ "type": "Feature", "properties": { "name": "Bathobatho", "name:en": null, "place": "village", "landuse": null, "population": null, "is_in": null, "source": null, "name:af": null, "name:nr": null, "name:st": null, "name:nso": null, "name:ssw": null, "name:ts": null, "name:tn": null, "name:ve": null, "name:xh": null, "name:zu": null, "osm_id": 4990262114, "osm_type": "nodes" }, "geometry": { "type": "Point", "coordinates": [ 25.472145, -26.2106637 ] } },
{ "type": "Feature", "properties": { "name": "Kraaipan", "name:en": null, "place": "village", "landuse": null, "population": null, "is_in": null, "source": null, "name:af": null, "name:nr": null, "name:st": null, "name:nso": null, "name:ssw": null, "name:ts": null, "name:tn": null, "name:ve": null, "name:xh": null, "name:zu": null, "osm_id": 4990262116, "osm_type": "nodes" }, "geometry": { "type": "Point", "coordinates": [ 25.2967071, -26.2913373 ] } },
{ "type": "Feature", "properties": { "name": "Thelesho", "name:en": null, "place": "village", "landuse": null, "population": null, "is_in": null, "source": null, "name:af": null, "name:nr": null, "name:st": null, "name:nso": null, "name:ssw": null, "name:ts": null, "name:tn": null, "name:ve": null, "name:xh": null, "name:zu": null, "osm_id": 4990262401, "osm_type": "nodes" }, "geometry": { "type": "Point", "coordinates": [ 25.4918861, -25.9903366 ] } },
{ "type": "Feature", "properties": { "name": "Mantsa", "name:en": null, "place": "village", "landuse": null, "population": null, "is_in": null, "source": null, "name:af": null, "name:nr": null, "name:st": null, "name:nso": null, "name:ssw": null, "name:ts": null, "name:tn": null, "name:ve": null, "name:xh": null, "name:zu": null, "osm_id": 4990262405, "osm_type": "nodes" }, "geometry": { "type": "Point", "coordinates": [ 25.5709791, -26.0600984 ] } },
{ "type": "Feature", "properties": { "name": "Manonyane", "name:en": null, "place": "hamlet", "landuse": null, "population": null, "is_in": null, "source": null, "name:af": null, "name:nr": null, "name:st": null, "name:nso": null, "name:ssw": null, "name:ts": null, "name:tn": null, "name:ve": null, "name:xh": null, "name:zu": null, "osm_id": 4990262407, "osm_type": "nodes" }, "geometry": { "type": "Point", "coordinates": [ 25.3686761, -26.4858616 ] } },
{ "type": "Feature", "properties": { "name": "Mokope", "name:en": null, "place": "hamlet", "landuse": null, "population": null, "is_in": null, "source": null, "name:af": null, "name:nr": null, "name:st": null, "name:nso": null, "name:ssw": null, "name:ts": null, "name:tn": null, "name:ve": null, "name:xh": null, "name:zu": null, "osm_id": 4990262408, "osm_type": "nodes" }, "geometry": { "type": "Point", "coordinates": [ 25.3226924, -26.4792163 ] } },
{ "type": "Feature", "properties": { "name": "Mofufutso", "name:en": null, "place": "village", "landuse": null, "population": null, "is_in": null, "source": null, "name:af": null, "name:nr": null, "name:st": null, "name:nso": null, "name:ssw": null, "name:ts": null, "name:tn": null, "name:ve": null, "name:xh": null, "name:zu": null, "osm_id": 4990262410, "osm_type": "nodes" }, "geometry": { "type": "Point", "coordinates": [ 25.4042745, -26.4436209 ] } },
{ "type": "Feature", "properties": { "name": "Weltevreden", "name:en": null, "place": "hamlet", "landuse": null, "population": null, "is_in": null, "source": null, "name:af": null, "name:nr": null, "name:st": null, "name:nso": null, "name:ssw": null, "name:ts": null, "name:tn": null, "name:ve": null, "name:xh": null, "name:zu": null, "osm_id": 4990262461, "osm_type": "nodes" }, "geometry": { "type": "Point", "coordinates": [ 25.4900193, -26.3180846 ] } },
{ "type": "Feature", "properties": { "name": "Witpan", "name:en": null, "place": "hamlet", "landuse": null, "population": null, "is_in": null, "source": null, "name:af": null, "name:nr": null, "name:st": null, "name:nso": null, "name:ssw": null, "name:ts": null, "name:tn": null, "name:ve": null, "name:xh": null, "name:zu": null, "osm_id": 4990257696, "osm_type": "nodes" }, "geometry": { "type": "Point", "coordinates": [ 25.5717087, -26.4382028 ] } },
{ "type": "Feature", "properties": { "name": "Kopela", "name:en": null, "place": "village", "landuse": null, "population": null, "is_in": null, "source": null, "name:af": null, "name:nr": null, "name:st": null, "name:nso": null, "name:ssw": null, "name:ts": null, "name:tn": null, "name:ve": null, "name:xh": null, "name:zu": null, "osm_id": 4990257697, "osm_type": "nodes" }, "geometry": { "type": "Point", "coordinates": [ 25.5208111, -26.4299983 ] } },
{ "type": "Feature", "properties": { "name": "Moolpan", "name:en": null, "place": "hamlet", "landuse": null, "population": null, "is_in": null, "source": null, "name:af": null, "name:nr": null, "name:st": null, "name:nso": null, "name:ssw": null, "name:ts": null, "name:tn": null, "name:ve": null, "name:xh": null, "name:zu": null, "osm_id": 4990257700, "osm_type": "nodes" }, "geometry": { "type": "Point", "coordinates": [ 25.521326, -26.3494406 ] } },
{ "type": "Feature", "properties": { "name": "Kgamayasha", "name:en": null, "place": "hamlet", "landuse": null, "population": null, "is_in": null, "source": null, "name:af": null, "name:nr": null, "name:st": null, "name:nso": null, "name:ssw": null, "name:ts": null, "name:tn": null, "name:ve": null, "name:xh": null, "name:zu": null, "osm_id": 4990259967, "osm_type": "nodes" }, "geometry": { "type": "Point", "coordinates": [ 25.3186798, -25.8735307 ] } },
{ "type": "Feature", "properties": { "name": "Masibi", "name:en": null, "place": "village", "landuse": null, "population": null, "is_in": null, "source": null, "name:af": null, "name:nr": null, "name:st": null, "name:nso": null, "name:ssw": null, "name:ts": null, "name:tn": null, "name:ve": null, "name:xh": null, "name:zu": null, "osm_id": 4990259968, "osm_type": "nodes" }, "geometry": { "type": "Point", "coordinates": [ 25.2991104, -25.7963364 ] } },
{ "type": "Feature", "properties": { "name": "Masutlhe", "name:en": null, "place": "village", "landuse": null, "population": null, "is_in": null, "source": null, "name:af": null, "name:nr": null, "name:st": null, "name:nso": null, "name:ssw": null, "name:ts": null, "name:tn": null, "name:ve": null, "name:xh": null, "name:zu": null, "osm_id": 1408778365, "osm_type": "nodes" }, "geometry": { "type": "Point", "coordinates": [ 25.4292763, -25.788157 ] } },
{ "type": "Feature", "properties": { "name": "Doornlaagate", "name:en": null, "place": "hamlet", "landuse": null, "population": null, "is_in": null, "source": null, "name:af": null, "name:nr": null, "name:st": null, "name:nso": null, "name:ssw": null, "name:ts": null, "name:tn": null, "name:ve": null, "name:xh": null, "name:zu": null, "osm_id": 4990257698, "osm_type": "nodes" }, "geometry": { "type": "Point", "coordinates": [ 25.5212402, -26.3917928 ] } },
{ "type": "Feature", "properties": { "name": "Thaba-Sione", "name:en": null, "place": "village", "landuse": null, "population": null, "is_in": null, "source": null, "name:af": null, "name:nr": null, "name:st": null, "name:nso": null, "name:ssw": null, "name:ts": null, "name:tn": null, "name:ve": null, "name:xh": null, "name:zu": null, "osm_id": 4990257699, "osm_type": "nodes" }, "geometry": { "type": "Point", "coordinates": [ 25.4206466, -26.352344 ] } },
{ "type": "Feature", "properties": { "name": "Logagane", "name:en": null, "place": "hamlet", "landuse": null, "population": null, "is_in": null, "source": null, "name:af": null, "name:nr": null, "name:st": null, "name:nso": null, "name:ssw": null, "name:ts": null, "name:tn": null, "name:ve": null, "name:xh": null, "name:zu": null, "osm_id": 4990259963, "osm_type": "nodes" }, "geometry": { "type": "Point", "coordinates": [ 24.8832929, -25.8176148 ] } },
{ "type": "Feature", "properties": { "name": "Centurion", "name:en": null, "place": "town", "landuse": null, "population": "236580", "is_in": "Gauteng, South Africa", "source": "sagns", "name:af": null, "name:nr": null, "name:st": null, "name:nso": null, "name:ssw": null, "name:ts": null, "name:tn": null, "name:ve": null, "name:xh": null, "name:zu": null, "osm_id": 262719636, "osm_type": "nodes" }, "geometry": { "type": "Point", "coordinates": [ 28.180278, -25.836389 ] } },
{ "type": "Feature", "properties": { "name": "Potchefstroom", "name:en": "Potchefstroom", "place": "city", "landuse": null, "population": "43448", "is_in": null, "source": "sagns", "name:af": null, "name:nr": null, "name:st": null, "name:nso": null, "name:ssw": null, "name:ts": null, "name:tn": null, "name:ve": null, "name:xh": null, "name:zu": null, "osm_id": 262721949, "osm_type": "nodes" }, "geometry": { "type": "Point", "coordinates": [ 27.095833, -26.707778 ] } },
{ "type": "Feature", "properties": { "name": "Philadelphia", "name:en": null, "place": "village", "landuse": null, "population": null, "is_in": null, "source": "sagns", "name:af": null, "name:nr": null, "name:st": null, "name:nso": null, "name:ssw": null, "name:ts": null, "name:tn": null, "name:ve": null, "name:xh": null, "name:zu": null, "osm_id": 262721921, "osm_type": "nodes" }, "geometry": { "type": "Point", "coordinates": [ 18.580989, -33.666635 ] } },
{ "type": "Feature", "properties": { "name": "Lesodi Mmotlana", "name:en": null, "place": "village", "landuse": null, "population": null, "is_in": null, "source": null, "name:af": null, "name:nr": null, "name:st": null, "name:nso": null, "name:ssw": null, "name:ts": null, "name:tn": null, "name:ve": null, "name:xh": null, "name:zu": null, "osm_id": 9261208949, "osm_type": "nodes" }, "geometry": { "type": "Point", "coordinates": [ 28.6131236, -23.9672839 ] } },
{ "type": "Feature", "properties": { "name": "Makekeng", "name:en": null, "place": "village", "landuse": null, "population": null, "is_in": null, "source": null, "name:af": null, "name:nr": null, "name:st": null, "name:nso": null, "name:ssw": null, "name:ts": null, "name:tn": null, "name:ve": null, "name:xh": null, "name:zu": null, "osm_id": 9261208950, "osm_type": "nodes" }, "geometry": { "type": "Point", "coordinates": [ 28.6161453, -23.9474324 ] } },
{ "type": "Feature", "properties": { "name": "Strandfontein", "name:en": null, "place": "village", "landuse": null, "population": null, "is_in": "Western Cape, South Africa", "source": "sagns", "name:af": null, "name:nr": null, "name:st": null, "name:nso": null, "name:ssw": null, "name:ts": null, "name:tn": null, "name:ve": null, "name:xh": null, "name:zu": null, "osm_id": 262717596, "osm_type": "nodes" }, "geometry": { "type": "Point", "coordinates": [ 18.227222, -31.755556 ] } },
{ "type": "Feature", "properties": { "name": "Sanddrift", "name:en": null, "place": "village", "landuse": null, "population": null, "is_in": null, "source": null, "name:af": null, "name:nr": null, "name:st": null, "name:nso": null, "name:ssw": null, "name:ts": null, "name:tn": null, "name:ve": null, "name:xh": null, "name:zu": null, "osm_id": 3975319333, "osm_type": "nodes" }, "geometry": { "type": "Point", "coordinates": [ 16.7764883, -28.4103899 ] } },
{ "type": "Feature", "properties": { "name": "Xaswita", "name:en": null, "place": "village", "landuse": null, "population": null, "is_in": null, "source": null, "name:af": null, "name:nr": null, "name:st": null, "name:nso": null, "name:ssw": null, "name:ts": null, "name:tn": null, "name:ve": null, "name:xh": null, "name:zu": null, "osm_id": 4959738914, "osm_type": "nodes" }, "geometry": { "type": "Point", "coordinates": [ 30.8210091, -22.9403079 ] } },
{ "type": "Feature", "properties": { "name": "Lekkersing", "name:en": null, "place": "village", "landuse": null, "population": null, "is_in": null, "source": null, "name:af": null, "name:nr": null, "name:st": null, "name:nso": null, "name:ssw": null, "name:ts": null, "name:tn": null, "name:ve": null, "name:xh": null, "name:zu": null, "osm_id": 2258349451, "osm_type": "nodes" }, "geometry": { "type": "Point", "coordinates": [ 17.096837, -29.001338 ] } },
{ "type": "Feature", "properties": { "name": "Tshirunzini", "name:en": null, "place": "village", "landuse": null, "population": null, "is_in": null, "source": null, "name:af": null, "name:nr": null, "name:st": null, "name:nso": null, "name:ssw": null, "name:ts": null, "name:tn": null, "name:ve": null, "name:xh": null, "name:zu": null, "osm_id": 4951128691, "osm_type": "nodes" }, "geometry": { "type": "Point", "coordinates": [ 30.6488383, -22.8674928 ] } },
{ "type": "Feature", "properties": { "name": "Mangondi", "name:en": null, "place": "village", "landuse": null, "population": null, "is_in": null, "source": null, "name:af": null, "name:nr": null, "name:st": null, "name:nso": null, "name:ssw": null, "name:ts": null, "name:tn": null, "name:ve": null, "name:xh": null, "name:zu": null, "osm_id": 4951128692, "osm_type": "nodes" }, "geometry": { "type": "Point", "coordinates": [ 30.618004, -22.8831292 ] } },
{ "type": "Feature", "properties": { "name": "Tshamutukwa", "name:en": null, "place": "village", "landuse": null, "population": null, "is_in": null, "source": null, "name:af": null, "name:nr": null, "name:st": null, "name:nso": null, "name:ssw": null, "name:ts": null, "name:tn": null, "name:ve": null, "name:xh": null, "name:zu": null, "osm_id": 4951128693, "osm_type": "nodes" }, "geometry": { "type": "Point", "coordinates": [ 30.6012055, -22.8888073 ] } },
{ "type": "Feature", "properties": { "name": "Malamagwa", "name:en": null, "place": "village", "landuse": null, "population": null, "is_in": null, "source": null, "name:af": null, "name:nr": null, "name:st": null, "name:nso": null, "name:ssw": null, "name:ts": null, "name:tn": null, "name:ve": null, "name:xh": null, "name:zu": null, "osm_id": 4951128694, "osm_type": "nodes" }, "geometry": { "type": "Point", "coordinates": [ 30.5879352, -22.8963173 ] } },
{ "type": "Feature", "properties": { "name": "Kendal", "name:en": null, "place": "village", "landuse": null, "population": null, "is_in": "Mpumalanga, South Africa", "source": "sagns", "name:af": null, "name:nr": null, "name:st": null, "name:nso": null, "name:ssw": null, "name:ts": null, "name:tn": null, "name:ve": null, "name:xh": null, "name:zu": null, "osm_id": 262707453, "osm_type": "nodes" }, "geometry": { "type": "Point", "coordinates": [ 28.9561111, -26.0563889 ] } },
{ "type": "Feature", "properties": { "name": "Madressa", "name:en": null, "place": "village", "landuse": null, "population": null, "is_in": "Mpumalanga, South Africa", "source": "sagns", "name:af": null, "name:nr": null, "name:st": null, "name:nso": null, "name:ssw": null, "name:ts": null, "name:tn": null, "name:ve": null, "name:xh": null, "name:zu": null, "osm_id": 262708999, "osm_type": "nodes" }, "geometry": { "type": "Point", "coordinates": [ 29.0538889, -26.0661111 ] } },
{ "type": "Feature", "properties": { "name": "Saaiwater", "name:en": null, "place": "village", "landuse": null, "population": null, "is_in": "Mpumalanga, South Africa", "source": "sagns", "name:af": null, "name:nr": null, "name:st": null, "name:nso": null, "name:ssw": null, "name:ts": null, "name:tn": null, "name:ve": null, "name:xh": null, "name:zu": null, "osm_id": 262715712, "osm_type": "nodes" }, "geometry": { "type": "Point", "coordinates": [ 29.1497222, -26.0872222 ] } },
{ "type": "Feature", "properties": { "name": "Bull Run", "name:en": null, "place": "village", "landuse": null, "population": null, "is_in": "North West, South Africa", "source": "sagns", "name:af": null, "name:nr": null, "name:st": null, "name:nso": null, "name:ssw": null, "name:ts": null, "name:tn": null, "name:ve": null, "name:xh": null, "name:zu": null, "osm_id": 262719501, "osm_type": "nodes" }, "geometry": { "type": "Point", "coordinates": [ 23.7541667, -26.7744444 ] } },
{ "type": "Feature", "properties": { "name": "Jordan", "name:en": null, "place": "village", "landuse": null, "population": null, "is_in": null, "source": null, "name:af": null, "name:nr": null, "name:st": null, "name:nso": null, "name:ssw": null, "name:ts": null, "name:tn": null, "name:ve": null, "name:xh": null, "name:zu": null, "osm_id": 4906169624, "osm_type": "nodes" }, "geometry": { "type": "Point", "coordinates": [ 23.1801331, -26.2909622 ] } },
{ "type": "Feature", "properties": { "name": "Aansluit", "name:en": null, "place": "isolated_dwelling", "landuse": null, "population": null, "is_in": null, "source": null, "name:af": null, "name:nr": null, "name:st": null, "name:nso": null, "name:ssw": null, "name:ts": null, "name:tn": null, "name:ve": null, "name:xh": null, "name:zu": null, "osm_id": 4902318310, "osm_type": "nodes" }, "geometry": { "type": "Point", "coordinates": [ 22.4718529, -26.7261928 ] } },
{ "type": "Feature", "properties": { "name": "eMazizini", "name:en": null, "place": "village", "landuse": null, "population": null, "is_in": "Eastern Cape, South Africa", "source": "sagns", "name:af": null, "name:nr": null, "name:st": null, "name:nso": null, "name:ssw": null, "name:ts": null, "name:tn": null, "name:ve": null, "name:xh": null, "name:zu": null, "osm_id": 262705792, "osm_type": "nodes" }, "geometry": { "type": "Point", "coordinates": [ 28.0966667, -32.3788889 ] } },
{ "type": "Feature", "properties": { "name": "Godidi", "name:en": null, "place": "village", "landuse": null, "population": null, "is_in": "Eastern Cape, South Africa", "source": "sagns", "name:af": null, "name:nr": null, "name:st": null, "name:nso": null, "name:ssw": null, "name:ts": null, "name:tn": null, "name:ve": null, "name:xh": null, "name:zu": null, "osm_id": 262706698, "osm_type": "nodes" }, "geometry": { "type": "Point", "coordinates": [ 28.1591667, -32.3447222 ] } },
{ "type": "Feature", "properties": { "name": "Jekete", "name:en": null, "place": "village", "landuse": null, "population": null, "is_in": "Eastern Cape, South Africa", "source": "sagns", "name:af": null, "name:nr": null, "name:st": null, "name:nso": null, "name:ssw": null, "name:ts": null, "name:tn": null, "name:ve": null, "name:xh": null, "name:zu": null, "osm_id": 262707271, "osm_type": "nodes" }, "geometry": { "type": "Point", "coordinates": [ 28.1194444, -32.3380556 ] } },
{ "type": "Feature", "properties": { "name": "Komkhulu", "name:en": null, "place": "village", "landuse": null, "population": null, "is_in": "Eastern Cape, South Africa", "source": "sagns", "name:af": null, "name:nr": null, "name:st": null, "name:nso": null, "name:ssw": null, "name:ts": null, "name:tn": null, "name:ve": null, "name:xh": null, "name:zu": null, "osm_id": 262707795, "osm_type": "nodes" }, "geometry": { "type": "Point", "coordinates": [ 28.1097222, -32.4041667 ] } },
{ "type": "Feature", "properties": { "name": "KuJingqi", "name:en": null, "place": "village", "landuse": null, "population": null, "is_in": "Eastern Cape, South Africa", "source": "sagns", "name:af": null, "name:nr": null, "name:st": null, "name:nso": null, "name:ssw": null, "name:ts": null, "name:tn": null, "name:ve": null, "name:xh": null, "name:zu": null, "osm_id": 262707941, "osm_type": "nodes" }, "geometry": { "type": "Point", "coordinates": [ 28.2805556, -32.2472222 ] } },
{ "type": "Feature", "properties": { "name": "KuMilwa", "name:en": null, "place": "village", "landuse": null, "population": null, "is_in": "Eastern Cape, South Africa", "source": "sagns", "name:af": null, "name:nr": null, "name:st": null, "name:nso": null, "name:ssw": null, "name:ts": null, "name:tn": null, "name:ve": null, "name:xh": null, "name:zu": null, "osm_id": 262707988, "osm_type": "nodes" }, "geometry": { "type": "Point", "coordinates": [ 28.3236111, -32.2458333 ] } },
{ "type": "Feature", "properties": { "name": "Mareledwane", "name:en": null, "place": "village", "landuse": null, "population": null, "is_in": "Eastern Cape, South Africa", "source": "sagns", "name:af": null, "name:nr": null, "name:st": null, "name:nso": null, "name:ssw": null, "name:ts": null, "name:tn": null, "name:ve": null, "name:xh": null, "name:zu": null, "osm_id": 262709435, "osm_type": "nodes" }, "geometry": { "type": "Point", "coordinates": [ 28.0580556, -32.3588889 ] } },
{ "type": "Feature", "properties": { "name": "Mbendeni", "name:en": null, "place": "village", "landuse": null, "population": null, "is_in": "Eastern Cape, South Africa", "source": "sagns", "name:af": null, "name:nr": null, "name:st": null, "name:nso": null, "name:ssw": null, "name:ts": null, "name:tn": null, "name:ve": null, "name:xh": null, "name:zu": null, "osm_id": 262709955, "osm_type": "nodes" }, "geometry": { "type": "Point", "coordinates": [ 28.0080556, -32.3675 ] } },
{ "type": "Feature", "properties": { "name": "Mdantsane", "name:en": null, "place": "village", "landuse": null, "population": null, "is_in": "Eastern Cape, South Africa", "source": "sagns", "name:af": null, "name:nr": null, "name:st": null, "name:nso": null, "name:ssw": null, "name:ts": null, "name:tn": null, "name:ve": null, "name:xh": null, "name:zu": null, "osm_id": 262709994, "osm_type": "nodes" }, "geometry": { "type": "Point", "coordinates": [ 28.0180556, -32.4111111 ] } },
{ "type": "Feature", "properties": { "name": "Mpini", "name:en": null, "place": "village", "landuse": null, "population": null, "is_in": "Eastern Cape, South Africa", "source": "sagns", "name:af": null, "name:nr": null, "name:st": null, "name:nso": null, "name:ssw": null, "name:ts": null, "name:tn": null, "name:ve": null, "name:xh": null, "name:zu": null, "osm_id": 262712661, "osm_type": "nodes" }, "geometry": { "type": "Point", "coordinates": [ 28.0127778, -32.4163889 ] } },
{ "type": "Feature", "properties": { "name": "Mzezi", "name:en": null, "place": "village", "landuse": null, "population": null, "is_in": "Eastern Cape, South Africa", "source": "sagns", "name:af": null, "name:nr": null, "name:st": null, "name:nso": null, "name:ssw": null, "name:ts": null, "name:tn": null, "name:ve": null, "name:xh": null, "name:zu": null, "osm_id": 262713057, "osm_type": "nodes" }, "geometry": { "type": "Point", "coordinates": [ 28.0797222, -32.3591667 ] } },
{ "type": "Feature", "properties": { "name": "Mzinjana", "name:en": null, "place": "village", "landuse": null, "population": null, "is_in": "Eastern Cape, South Africa", "source": "sagns", "name:af": null, "name:nr": null, "name:st": null, "name:nso": null, "name:ssw": null, "name:ts": null, "name:tn": null, "name:ve": null, "name:xh": null, "name:zu": null, "osm_id": 262713071, "osm_type": "nodes" }, "geometry": { "type": "Point", "coordinates": [ 28.1636111, -32.3586111 ] } },
{ "type": "Feature", "properties": { "name": "Rwantsana", "name:en": null, "place": "village", "landuse": null, "population": null, "is_in": "Eastern Cape, South Africa", "source": "sagns", "name:af": null, "name:nr": null, "name:st": null, "name:nso": null, "name:ssw": null, "name:ts": null, "name:tn": null, "name:ve": null, "name:xh": null, "name:zu": null, "osm_id": 262715708, "osm_type": "nodes" }, "geometry": { "type": "Point", "coordinates": [ 28.0258333, -32.4902778 ] } },
{ "type": "Feature", "properties": { "name": "Sabalele", "name:en": null, "place": "village", "landuse": null, "population": null, "is_in": "Eastern Cape, South Africa", "source": "sagns", "name:af": null, "name:nr": null, "name:st": null, "name:nso": null, "name:ssw": null, "name:ts": null, "name:tn": null, "name:ve": null, "name:xh": null, "name:zu": null, "osm_id": 262715713, "osm_type": "nodes" }, "geometry": { "type": "Point", "coordinates": [ 28.1005556, -32.3827778 ] } },
{ "type": "Feature", "properties": { "name": "Upper Mchubakazi", "name:en": null, "place": "village", "landuse": null, "population": null, "is_in": "Eastern Cape, South Africa", "source": "sagns", "name:af": null, "name:nr": null, "name:st": null, "name:nso": null, "name:ssw": null, "name:ts": null, "name:tn": null, "name:ve": null, "name:xh": null, "name:zu": null, "osm_id": 262718165, "osm_type": "nodes" }, "geometry": { "type": "Point", "coordinates": [ 28.1838889, -32.3052778 ] } },
{ "type": "Feature", "properties": { "name": "Viedgesville", "name:en": null, "place": "village", "landuse": null, "population": null, "is_in": "Eastern Cape, South Africa", "source": "sagns", "name:af": null, "name:nr": null, "name:st": null, "name:nso": null, "name:ssw": null, "name:ts": null, "name:tn": null, "name:ve": null, "name:xh": null, "name:zu": null, "osm_id": 262718375, "osm_type": "nodes" }, "geometry": { "type": "Point", "coordinates": [ 28.6919444, -31.7227778 ] } },
{ "type": "Feature", "properties": { "name": "Zingqandana", "name:en": null, "place": "village", "landuse": null, "population": null, "is_in": "Eastern Cape, South Africa", "source": "sagns", "name:af": null, "name:nr": null, "name:st": null, "name:nso": null, "name:ssw": null, "name:ts": null, "name:tn": null, "name:ve": null, "name:xh": null, "name:zu": null, "osm_id": 262718966, "osm_type": "nodes" }, "geometry": { "type": "Point", "coordinates": [ 28.0122222, -32.4516667 ] } },
{ "type": "Feature", "properties": { "name": "Uitkeer", "name:en": null, "place": "hamlet", "landuse": null, "population": null, "is_in": "Eastern Cape, South Africa", "source": "sagns", "name:af": null, "name:nr": null, "name:st": null, "name:nso": null, "name:ssw": null, "name:ts": null, "name:tn": null, "name:ve": null, "name:xh": null, "name:zu": null, "osm_id": 262722321, "osm_type": "nodes" }, "geometry": { "type": "Point", "coordinates": [ 25.665, -32.7641667 ] } },
{ "type": "Feature", "properties": { "name": "Cannonvale", "name:en": null, "place": "hamlet", "landuse": null, "population": null, "is_in": "Eastern Cape, South Africa", "source": "sagns", "name:af": null, "name:nr": null, "name:st": null, "name:nso": null, "name:ssw": null, "name:ts": null, "name:tn": null, "name:ve": null, "name:xh": null, "name:zu": null, "osm_id": 262704599, "osm_type": "nodes" }, "geometry": { "type": "Point", "coordinates": [ 25.8033333, -33.7061111 ] } },
{ "type": "Feature", "properties": { "name": "Slabberts", "name:en": null, "place": "village", "landuse": null, "population": null, "is_in": "Free State, South Africa", "source": "sagns", "name:af": null, "name:nr": null, "name:st": null, "name:nso": null, "name:ssw": null, "name:ts": null, "name:tn": null, "name:ve": null, "name:xh": null, "name:zu": null, "osm_id": 262716120, "osm_type": "nodes" }, "geometry": { "type": "Point", "coordinates": [ 28.182492, -28.4357006 ] } },
{ "type": "Feature", "properties": { "name": "Rietvale", "name:en": null, "place": "hamlet", "landuse": null, "population": null, "is_in": "Northern Cape, South Africa", "source": "sagns", "name:af": null, "name:nr": null, "name:st": null, "name:nso": null, "name:ssw": null, "name:ts": null, "name:tn": null, "name:ve": null, "name:xh": null, "name:zu": null, "osm_id": 262715327, "osm_type": "nodes" }, "geometry": { "type": "Point", "coordinates": [ 24.5841594, -29.0383306 ] } },
{ "type": "Feature", "properties": { "name": "Riverton", "name:en": null, "place": "hamlet", "landuse": null, "population": null, "is_in": "Northern Cape, South Africa", "source": "sagns", "name:af": null, "name:nr": null, "name:st": null, "name:nso": null, "name:ssw": null, "name:ts": null, "name:tn": null, "name:ve": null, "name:xh": null, "name:zu": null, "osm_id": 262715340, "osm_type": "nodes" }, "geometry": { "type": "Point", "coordinates": [ 24.6969406, -28.5183351 ] } },
{ "type": "Feature", "properties": { "name": "Mataleng", "name:en": null, "place": "hamlet", "landuse": null, "population": null, "is_in": "Northern Cape, South Africa", "source": "sagns", "name:af": null, "name:nr": null, "name:st": null, "name:nso": null, "name:ssw": null, "name:ts": null, "name:tn": null, "name:ve": null, "name:xh": null, "name:zu": null, "osm_id": 262721273, "osm_type": "nodes" }, "geometry": { "type": "Point", "coordinates": [ 24.5027747, -28.5341599 ] } },
{ "type": "Feature", "properties": { "name": "Motswedimosa", "name:en": null, "place": "hamlet", "landuse": null, "population": null, "is_in": "Northern Cape, South Africa", "source": "sagns", "name:af": null, "name:nr": null, "name:st": null, "name:nso": null, "name:ssw": null, "name:ts": null, "name:tn": null, "name:ve": null, "name:xh": null, "name:zu": null, "osm_id": 262721541, "osm_type": "nodes" }, "geometry": { "type": "Point", "coordinates": [ 24.5874982, -29.0249949 ] } },
{ "type": "Feature", "properties": { "name": "Warrenvale", "name:en": null, "place": "hamlet", "landuse": null, "population": null, "is_in": "Northern Cape, South Africa", "source": "sagns", "name:af": null, "name:nr": null, "name:st": null, "name:nso": null, "name:ssw": null, "name:ts": null, "name:tn": null, "name:ve": null, "name:xh": null, "name:zu": null, "osm_id": 262722449, "osm_type": "nodes" }, "geometry": { "type": "Point", "coordinates": [ 24.8736059, -28.100839 ] } },
{ "type": "Feature", "properties": { "name": "Kotana", "name:en": null, "place": "village", "landuse": null, "population": null, "is_in": null, "source": null, "name:af": null, "name:nr": null, "name:st": null, "name:nso": null, "name:ssw": null, "name:ts": null, "name:tn": null, "name:ve": null, "name:xh": null, "name:zu": null, "osm_id": 10699349290, "osm_type": "nodes" }, "geometry": { "type": "Point", "coordinates": [ 28.1397818, -32.1543716 ] } },
{ "type": "Feature", "properties": { "name": "Ndrimbakazi", "name:en": null, "place": "village", "landuse": null, "population": null, "is_in": null, "source": null, "name:af": null, "name:nr": null, "name:st": null, "name:nso": null, "name:ssw": null, "name:ts": null, "name:tn": null, "name:ve": null, "name:xh": null, "name:zu": null, "osm_id": 10699374158, "osm_type": "nodes" }, "geometry": { "type": "Point", "coordinates": [ 28.7391223, -32.202513 ] } },
{ "type": "Feature", "properties": { "name": "Kodidi", "name:en": null, "place": "village", "landuse": null, "population": null, "is_in": null, "source": null, "name:af": null, "name:nr": null, "name:st": null, "name:nso": null, "name:ssw": null, "name:ts": null, "name:tn": null, "name:ve": null, "name:xh": null, "name:zu": null, "osm_id": 10699376843, "osm_type": "nodes" }, "geometry": { "type": "Point", "coordinates": [ 28.3960587, -32.4325825 ] } },
{ "type": "Feature", "properties": { "name": "Glenconnor", "name:en": null, "place": "hamlet", "landuse": null, "population": null, "is_in": "Eastern Cape, South Africa", "source": "sagns", "name:af": null, "name:nr": null, "name:st": null, "name:nso": null, "name:ssw": null, "name:ts": null, "name:tn": null, "name:ve": null, "name:xh": null, "name:zu": null, "osm_id": 262706653, "osm_type": "nodes" }, "geometry": { "type": "Point", "coordinates": [ 25.1602778, -33.3944444 ] } },
{ "type": "Feature", "properties": { "name": "Gouna", "name:en": null, "place": "hamlet", "landuse": null, "population": null, "is_in": "Western Cape, South Africa", "source": "sagns", "name:af": null, "name:nr": null, "name:st": null, "name:nso": null, "name:ssw": null, "name:ts": null, "name:tn": null, "name:ve": null, "name:xh": null, "name:zu": null, "osm_id": 262706760, "osm_type": "nodes" }, "geometry": { "type": "Point", "coordinates": [ 23.0508333, -33.9669444 ] } },
{ "type": "Feature", "properties": { "name": "Phathakahle", "name:en": null, "place": "town", "landuse": null, "population": null, "is_in": "Free State, South Africa", "source": "sagns", "name:af": null, "name:nr": null, "name:st": null, "name:nso": null, "name:ssw": null, "name:ts": null, "name:tn": null, "name:ve": null, "name:xh": null, "name:zu": null, "osm_id": 262721918, "osm_type": "nodes" }, "geometry": { "type": "Point", "coordinates": [ 26.6548582, -27.7766995 ] } },
{ "type": "Feature", "properties": { "name": "Ratsegae", "name:en": null, "place": "village", "landuse": null, "population": null, "is_in": "North West, South Africa", "source": "sagns", "name:af": null, "name:nr": null, "name:st": null, "name:nso": null, "name:ssw": null, "name:ts": null, "name:tn": null, "name:ve": null, "name:xh": null, "name:zu": null, "osm_id": 262715214, "osm_type": "nodes" }, "geometry": { "type": "Point", "coordinates": [ 26.5952778, -25.1919444 ] } },
{ "type": "Feature", "properties": { "name": "Ga-Ditsane", "name:en": null, "place": "village", "landuse": null, "population": null, "is_in": null, "source": null, "name:af": null, "name:nr": null, "name:st": null, "name:nso": null, "name:ssw": null, "name:ts": null, "name:tn": null, "name:ve": null, "name:xh": null, "name:zu": null, "osm_id": 4917556812, "osm_type": "nodes" }, "geometry": { "type": "Point", "coordinates": [ 23.5095298, -27.2241333 ] } },
{ "type": "Feature", "properties": { "name": "Tsamaros", "name:en": null, "place": "hamlet", "landuse": null, "population": null, "is_in": null, "source": null, "name:af": null, "name:nr": null, "name:st": null, "name:nso": null, "name:ssw": null, "name:ts": null, "name:tn": null, "name:ve": null, "name:xh": null, "name:zu": null, "osm_id": 4191537976, "osm_type": "nodes" }, "geometry": { "type": "Point", "coordinates": [ 23.8995564, -27.2812507 ] } },
{ "type": "Feature", "properties": { "name": "Skerma", "name:en": null, "place": "hamlet", "landuse": null, "population": null, "is_in": null, "source": null, "name:af": null, "name:nr": null, "name:st": null, "name:nso": null, "name:ssw": null, "name:ts": null, "name:tn": null, "name:ve": null, "name:xh": null, "name:zu": null, "osm_id": 4190197389, "osm_type": "nodes" }, "geometry": { "type": "Point", "coordinates": [ 23.6843452, -27.4614882 ] } },
{ "type": "Feature", "properties": { "name": "Manyeding", "name:en": null, "place": "village", "landuse": null, "population": null, "is_in": null, "source": null, "name:af": null, "name:nr": null, "name:st": null, "name:nso": null, "name:ssw": null, "name:ts": null, "name:tn": null, "name:ve": null, "name:xh": null, "name:zu": null, "osm_id": 4190197390, "osm_type": "nodes" }, "geometry": { "type": "Point", "coordinates": [ 23.6839504, -27.4951469 ] } },
{ "type": "Feature", "properties": { "name": "Ntunjambili", "name:en": null, "place": "village", "landuse": null, "population": null, "is_in": null, "source": null, "name:af": null, "name:nr": null, "name:st": null, "name:nso": null, "name:ssw": null, "name:ts": null, "name:tn": null, "name:ve": null, "name:xh": null, "name:zu": null, "osm_id": 2182427998, "osm_type": "nodes" }, "geometry": { "type": "Point", "coordinates": [ 30.938111, -28.9336395 ] } },
{ "type": "Feature", "properties": { "name": "Madibeng", "name:en": null, "place": "village", "landuse": null, "population": null, "is_in": null, "source": null, "name:af": null, "name:nr": null, "name:st": null, "name:nso": null, "name:ssw": null, "name:ts": null, "name:tn": null, "name:ve": null, "name:xh": null, "name:zu": null, "osm_id": 4185554589, "osm_type": "nodes" }, "geometry": { "type": "Point", "coordinates": [ 22.8498745, -26.5739996 ] } },
{ "type": "Feature", "properties": { "name": "Croydon", "name:en": null, "place": "hamlet", "landuse": null, "population": null, "is_in": null, "source": null, "name:af": null, "name:nr": null, "name:st": null, "name:nso": null, "name:ssw": null, "name:ts": null, "name:tn": null, "name:ve": null, "name:xh": null, "name:zu": null, "osm_id": 4990259964, "osm_type": "nodes" }, "geometry": { "type": "Point", "coordinates": [ 25.1359891, -25.8864848 ] } },
{ "type": "Feature", "properties": { "name": "Mabule", "name:en": null, "place": "village", "landuse": null, "population": null, "is_in": null, "source": null, "name:af": null, "name:nr": null, "name:st": null, "name:nso": null, "name:ssw": null, "name:ts": null, "name:tn": null, "name:ve": null, "name:xh": null, "name:zu": null, "osm_id": 4990259958, "osm_type": "nodes" }, "geometry": { "type": "Point", "coordinates": [ 24.5604515, -25.778484 ] } },
{ "type": "Feature", "properties": { "name": "Matloding", "name:en": null, "place": "village", "landuse": null, "population": null, "is_in": null, "source": null, "name:af": null, "name:nr": null, "name:st": null, "name:nso": null, "name:ssw": null, "name:ts": null, "name:tn": null, "name:ve": null, "name:xh": null, "name:zu": null, "osm_id": 4990259960, "osm_type": "nodes" }, "geometry": { "type": "Point", "coordinates": [ 24.6682119, -25.9099376 ] } },
{ "type": "Feature", "properties": { "name": "Rapples Pan", "name:en": null, "place": "village", "landuse": null, "population": null, "is_in": null, "source": null, "name:af": null, "name:nr": null, "name:st": null, "name:nso": null, "name:ssw": null, "name:ts": null, "name:tn": null, "name:ve": null, "name:xh": null, "name:zu": null, "osm_id": 2454868260, "osm_type": "nodes" }, "geometry": { "type": "Point", "coordinates": [ 20.815421, -26.820024 ] } },
{ "type": "Feature", "properties": { "name": "Pomfret", "name:en": null, "place": "village", "landuse": null, "population": null, "is_in": "North West, South Africa", "source": "sagns", "name:af": null, "name:nr": null, "name:st": null, "name:nso": null, "name:ssw": null, "name:ts": null, "name:tn": null, "name:ve": null, "name:xh": null, "name:zu": null, "osm_id": 262721942, "osm_type": "nodes" }, "geometry": { "type": "Point", "coordinates": [ 23.5258887, -25.8322718 ] } },
{ "type": "Feature", "properties": { "name": null, "name:en": null, "place": "village", "landuse": null, "population": null, "is_in": null, "source": null, "name:af": null, "name:nr": null, "name:st": null, "name:nso": null, "name:ssw": null, "name:ts": null, "name:tn": null, "name:ve": null, "name:xh": null, "name:zu": null, "osm_id": 3089092734, "osm_type": "nodes" }, "geometry": { "type": "Point", "coordinates": [ 25.6718837, -25.4943635 ] } },
{ "type": "Feature", "properties": { "name": "Sodwana Bay", "name:en": null, "place": "village", "landuse": null, "population": null, "is_in": null, "source": null, "name:af": null, "name:nr": null, "name:st": null, "name:nso": null, "name:ssw": null, "name:ts": null, "name:tn": null, "name:ve": null, "name:xh": null, "name:zu": null, "osm_id": 2073000645, "osm_type": "nodes" }, "geometry": { "type": "Point", "coordinates": [ 32.6711841, -27.548832 ] } },
{ "type": "Feature", "properties": { "name": "Morukuru Family House", "name:en": null, "place": "hamlet", "landuse": null, "population": null, "is_in": null, "source": null, "name:af": null, "name:nr": null, "name:st": null, "name:nso": null, "name:ssw": null, "name:ts": null, "name:tn": null, "name:ve": null, "name:xh": null, "name:zu": null, "osm_id": 2667032106, "osm_type": "nodes" }, "geometry": { "type": "Point", "coordinates": [ 26.4404816, -24.7856719 ] } },
{ "type": "Feature", "properties": { "name": "Kayakulu", "name:en": null, "place": "village", "landuse": null, "population": null, "is_in": "North West, South Africa", "source": "sagns", "name:af": null, "name:nr": null, "name:st": null, "name:nso": null, "name:ssw": null, "name:ts": null, "name:tn": null, "name:ve": null, "name:xh": null, "name:zu": null, "osm_id": 262707419, "osm_type": "nodes" }, "geometry": { "type": "Point", "coordinates": [ 26.6633333, -25.0980556 ] } },
{ "type": "Feature", "properties": { "name": "Motlhabe", "name:en": null, "place": "village", "landuse": null, "population": null, "is_in": "North West, South Africa", "source": "sagns", "name:af": null, "name:nr": null, "name:st": null, "name:nso": null, "name:ssw": null, "name:ts": null, "name:tn": null, "name:ve": null, "name:xh": null, "name:zu": null, "osm_id": 262712612, "osm_type": "nodes" }, "geometry": { "type": "Point", "coordinates": [ 26.9444444, -25.0669444 ] } },
{ "type": "Feature", "properties": { "name": "Mount Carmel Game Farm", "name:en": null, "place": "hamlet", "landuse": null, "population": null, "is_in": null, "source": null, "name:af": null, "name:nr": null, "name:st": null, "name:nso": null, "name:ssw": null, "name:ts": null, "name:tn": null, "name:ve": null, "name:xh": null, "name:zu": null, "osm_id": 1388709987, "osm_type": "nodes" }, "geometry": { "type": "Point", "coordinates": [ 23.6072287, -27.9835021 ] } },
{ "type": "Feature", "properties": { "name": "Batau", "name:en": null, "place": "village", "landuse": null, "population": null, "is_in": "North West, South Africa", "source": "sagns", "name:af": null, "name:nr": null, "name:st": null, "name:nso": null, "name:ssw": null, "name:ts": null, "name:tn": null, "name:ve": null, "name:xh": null, "name:zu": null, "osm_id": 262694956, "osm_type": "nodes" }, "geometry": { "type": "Point", "coordinates": [ 26.7288889, -25.1733333 ] } },
{ "type": "Feature", "properties": { "name": "Dundee", "name:en": null, "place": "town", "landuse": null, "population": "34924", "is_in": "KwaZulu-Natal, South Africa", "source": "sagns", "name:af": null, "name:nr": null, "name:st": null, "name:nso": null, "name:ssw": null, "name:ts": null, "name:tn": null, "name:ve": null, "name:xh": null, "name:zu": null, "osm_id": 94825540, "osm_type": "nodes" }, "geometry": { "type": "Point", "coordinates": [ 30.235, -28.161389 ] } },
{ "type": "Feature", "properties": { "name": "Mahunu", "name:en": null, "place": "village", "landuse": null, "population": null, "is_in": null, "source": null, "name:af": null, "name:nr": null, "name:st": null, "name:nso": null, "name:ssw": null, "name:ts": null, "name:tn": null, "name:ve": null, "name:xh": null, "name:zu": null, "osm_id": 2207841017, "osm_type": "nodes" }, "geometry": { "type": "Point", "coordinates": [ 31.859523, -28.9158887 ] } },
{ "type": "Feature", "properties": { "name": "Port Durnford", "name:en": null, "place": "village", "landuse": null, "population": null, "is_in": null, "source": null, "name:af": null, "name:nr": null, "name:st": null, "name:nso": null, "name:ssw": null, "name:ts": null, "name:tn": null, "name:ve": null, "name:xh": null, "name:zu": null, "osm_id": 2207841040, "osm_type": "nodes" }, "geometry": { "type": "Point", "coordinates": [ 31.8292604, -28.9214276 ] } },
{ "type": "Feature", "properties": { "name": "Stellenbosch", "name:en": null, "place": "town", "landuse": null, "population": "60000", "is_in": null, "source": "sagns", "name:af": null, "name:nr": null, "name:st": null, "name:nso": null, "name:ssw": null, "name:ts": null, "name:tn": null, "name:ve": null, "name:xh": null, "name:zu": null, "osm_id": 21489671, "osm_type": "nodes" }, "geometry": { "type": "Point", "coordinates": [ 18.869167, -33.934444 ] } },
{ "type": "Feature", "properties": { "name": "Bekbaai", "name:en": null, "place": "hamlet", "landuse": null, "population": null, "is_in": "Western Cape, South Africa", "source": "sagns", "name:af": null, "name:nr": null, "name:st": null, "name:nso": null, "name:ssw": null, "name:ts": null, "name:tn": null, "name:ve": null, "name:xh": null, "name:zu": null, "osm_id": 262719152, "osm_type": "nodes" }, "geometry": { "type": "Point", "coordinates": [ 17.8827778, -32.8147222 ] } },
{ "type": "Feature", "properties": { "name": "Bholani", "name:en": null, "place": "town", "landuse": null, "population": null, "is_in": "Eastern Cape, South Africa", "source": "sagns", "name:af": null, "name:nr": null, "name:st": null, "name:nso": null, "name:ssw": null, "name:ts": null, "name:tn": null, "name:ve": null, "name:xh": null, "name:zu": null, "osm_id": 262719295, "osm_type": "nodes" }, "geometry": { "type": "Point", "coordinates": [ 27.9372222, -32.2005556 ] } },
{ "type": "Feature", "properties": { "name": "Ledig", "name:en": null, "place": "town", "landuse": null, "population": null, "is_in": "North West, South Africa", "source": "sagns", "name:af": null, "name:nr": null, "name:st": null, "name:nso": null, "name:ssw": null, "name:ts": null, "name:tn": null, "name:ve": null, "name:xh": null, "name:zu": null, "osm_id": 262720950, "osm_type": "nodes" }, "geometry": { "type": "Point", "coordinates": [ 27.055, -25.3625 ] } },
{ "type": "Feature", "properties": { "name": "Letlhabile", "name:en": null, "place": "town", "landuse": null, "population": null, "is_in": "North West, South Africa", "source": "sagns", "name:af": null, "name:nr": null, "name:st": null, "name:nso": null, "name:ssw": null, "name:ts": null, "name:tn": null, "name:ve": null, "name:xh": null, "name:zu": null, "osm_id": 262720998, "osm_type": "nodes" }, "geometry": { "type": "Point", "coordinates": [ 27.0411111, -25.3544444 ] } },
{ "type": "Feature", "properties": { "name": "Mabobosini", "name:en": null, "place": "town", "landuse": null, "population": null, "is_in": "Eastern Cape, South Africa", "source": "sagns", "name:af": null, "name:nr": null, "name:st": null, "name:nso": null, "name:ssw": null, "name:ts": null, "name:tn": null, "name:ve": null, "name:xh": null, "name:zu": null, "osm_id": 262721071, "osm_type": "nodes" }, "geometry": { "type": "Point", "coordinates": [ 27.6477778, -32.9802778 ] } },
{ "type": "Feature", "properties": { "name": "Manokwane", "name:en": null, "place": "town", "landuse": null, "population": null, "is_in": "North West, South Africa", "source": "sagns", "name:af": null, "name:nr": null, "name:st": null, "name:nso": null, "name:ssw": null, "name:ts": null, "name:tn": null, "name:ve": null, "name:xh": null, "name:zu": null, "osm_id": 262721226, "osm_type": "nodes" }, "geometry": { "type": "Point", "coordinates": [ 24.7986111, -27.5561111 ] } },
{ "type": "Feature", "properties": { "name": "Mdladla", "name:en": null, "place": "town", "landuse": null, "population": null, "is_in": "Mpumalanga, South Africa", "source": "sagns", "name:af": null, "name:nr": null, "name:st": null, "name:nso": null, "name:ssw": null, "name:ts": null, "name:tn": null, "name:ve": null, "name:xh": null, "name:zu": null, "osm_id": 262721308, "osm_type": "nodes" }, "geometry": { "type": "Point", "coordinates": [ 31.6805556, -25.5916667 ] } },
{ "type": "Feature", "properties": { "name": "Melkhoutfontein", "name:en": null, "place": "town", "landuse": null, "population": null, "is_in": "Western Cape, South Africa", "source": "sagns", "name:af": null, "name:nr": null, "name:st": null, "name:nso": null, "name:ssw": null, "name:ts": null, "name:tn": null, "name:ve": null, "name:xh": null, "name:zu": null, "osm_id": 262721317, "osm_type": "nodes" }, "geometry": { "type": "Point", "coordinates": [ 21.4372222, -34.3255556 ] } },
{ "type": "Feature", "properties": { "name": "Merriespruit", "name:en": null, "place": "town", "landuse": null, "population": null, "is_in": "Free State, South Africa", "source": "sagns", "name:af": null, "name:nr": null, "name:st": null, "name:nso": null, "name:ssw": null, "name:ts": null, "name:tn": null, "name:ve": null, "name:xh": null, "name:zu": null, "osm_id": 262721322, "osm_type": "nodes" }, "geometry": { "type": "Point", "coordinates": [ 26.8427778, -28.1188889 ] } },
{ "type": "Feature", "properties": { "name": "Mhole", "name:en": null, "place": "town", "landuse": null, "population": null, "is_in": "North West, South Africa", "source": "sagns", "name:af": null, "name:nr": null, "name:st": null, "name:nso": null, "name:ssw": null, "name:ts": null, "name:tn": null, "name:ve": null, "name:xh": null, "name:zu": null, "osm_id": 262721326, "osm_type": "nodes" }, "geometry": { "type": "Point", "coordinates": [ 24.8016667, -27.5363889 ] } },
{ "type": "Feature", "properties": { "name": "Mmantserre", "name:en": null, "place": "town", "landuse": null, "population": null, "is_in": "North West, South Africa", "source": "sagns", "name:af": null, "name:nr": null, "name:st": null, "name:nso": null, "name:ssw": null, "name:ts": null, "name:tn": null, "name:ve": null, "name:xh": null, "name:zu": null, "osm_id": 262721401, "osm_type": "nodes" }, "geometry": { "type": "Point", "coordinates": [ 27.0961111, -24.9444444 ] } },
{ "type": "Feature", "properties": { "name": "Apara", "name:en": null, "place": "town", "landuse": null, "population": null, "is_in": "Mpumalanga, South Africa", "source": "sagns", "name:af": null, "name:nr": null, "name:st": null, "name:nso": null, "name:ssw": null, "name:ts": null, "name:tn": null, "name:ve": null, "name:xh": null, "name:zu": null, "osm_id": 262719102, "osm_type": "nodes" }, "geometry": { "type": "Point", "coordinates": [ 30.7630556, -24.5947222 ] } },
{ "type": "Feature", "properties": { "name": "Berseba", "name:en": null, "place": "town", "landuse": null, "population": null, "is_in": "North West, South Africa", "source": "sagns", "name:af": null, "name:nr": null, "name:st": null, "name:nso": null, "name:ssw": null, "name:ts": null, "name:tn": null, "name:ve": null, "name:xh": null, "name:zu": null, "osm_id": 262719270, "osm_type": "nodes" }, "geometry": { "type": "Point", "coordinates": [ 27.5313889, -25.5538889 ] } },
{ "type": "Feature", "properties": { "name": "Blue Rock", "name:en": null, "place": "town", "landuse": null, "population": null, "is_in": "Eastern Cape, South Africa", "source": "sagns", "name:af": null, "name:nr": null, "name:st": null, "name:nso": null, "name:ssw": null, "name:ts": null, "name:tn": null, "name:ve": null, "name:xh": null, "name:zu": null, "osm_id": 262719357, "osm_type": "nodes" }, "geometry": { "type": "Point", "coordinates": [ 27.6591667, -32.965 ] } },
{ "type": "Feature", "properties": { "name": "Botha", "name:en": null, "place": "town", "landuse": null, "population": null, "is_in": "Western Cape, South Africa", "source": "sagns", "name:af": null, "name:nr": null, "name:st": null, "name:nso": null, "name:ssw": null, "name:ts": null, "name:tn": null, "name:ve": null, "name:xh": null, "name:zu": null, "osm_id": 262719397, "osm_type": "nodes" }, "geometry": { "type": "Point", "coordinates": [ 19.2583333, -33.5638889 ] } },
{ "type": "Feature", "properties": { "name": "Brightside", "name:en": null, "place": "town", "landuse": null, "population": null, "is_in": "Free State, South Africa", "source": "sagns", "name:af": null, "name:nr": null, "name:st": null, "name:nso": null, "name:ssw": null, "name:ts": null, "name:tn": null, "name:ve": null, "name:xh": null, "name:zu": null, "osm_id": 262719480, "osm_type": "nodes" }, "geometry": { "type": "Point", "coordinates": [ 27.4605556, -29.1702778 ] } },
{ "type": "Feature", "properties": { "name": "Bronville", "name:en": null, "place": "town", "landuse": null, "population": null, "is_in": "Free State, South Africa", "source": "sagns", "name:af": null, "name:nr": null, "name:st": null, "name:nso": null, "name:ssw": null, "name:ts": null, "name:tn": null, "name:ve": null, "name:xh": null, "name:zu": null, "osm_id": 262719486, "osm_type": "nodes" }, "geometry": { "type": "Point", "coordinates": [ 26.8222222, -27.9986111 ] } },
{ "type": "Feature", "properties": { "name": "Buffeljagsrivier", "name:en": null, "place": "town", "landuse": null, "population": null, "is_in": "Western Cape, South Africa", "source": "sagns", "name:af": null, "name:nr": null, "name:st": null, "name:nso": null, "name:ssw": null, "name:ts": null, "name:tn": null, "name:ve": null, "name:xh": null, "name:zu": null, "osm_id": 262719496, "osm_type": "nodes" }, "geometry": { "type": "Point", "coordinates": [ 20.525, -34.0444444 ] } },
{ "type": "Feature", "properties": { "name": "Chaneng", "name:en": null, "place": "town", "landuse": null, "population": null, "is_in": "North West, South Africa", "source": "sagns", "name:af": null, "name:nr": null, "name:st": null, "name:nso": null, "name:ssw": null, "name:ts": null, "name:tn": null, "name:ve": null, "name:xh": null, "name:zu": null, "osm_id": 262719640, "osm_type": "nodes" }, "geometry": { "type": "Point", "coordinates": [ 27.1227778, -25.4144444 ] } },
{ "type": "Feature", "properties": { "name": "Cumakala", "name:en": null, "place": "town", "landuse": null, "population": null, "is_in": "Eastern Cape, South Africa", "source": "sagns", "name:af": null, "name:nr": null, "name:st": null, "name:nso": null, "name:ssw": null, "name:ts": null, "name:tn": null, "name:ve": null, "name:xh": null, "name:zu": null, "osm_id": 262719733, "osm_type": "nodes" }, "geometry": { "type": "Point", "coordinates": [ 27.4477778, -32.56 ] } },
{ "type": "Feature", "properties": { "name": "eMdlankhomo", "name:en": null, "place": "town", "landuse": null, "population": null, "is_in": "Mpumalanga, South Africa", "source": "sagns", "name:af": null, "name:nr": null, "name:st": null, "name:nso": null, "name:ssw": null, "name:ts": null, "name:tn": null, "name:ve": null, "name:xh": null, "name:zu": null, "osm_id": 262720060, "osm_type": "nodes" }, "geometry": { "type": "Point", "coordinates": [ 31.2333333, -25.275 ] } },
{ "type": "Feature", "properties": { "name": "Ga-Monlala", "name:en": null, "place": "town", "landuse": null, "population": null, "is_in": "Mpumalanga, South Africa", "source": "sagns", "name:af": null, "name:nr": null, "name:st": null, "name:nso": null, "name:ssw": null, "name:ts": null, "name:tn": null, "name:ve": null, "name:xh": null, "name:zu": null, "osm_id": 262720299, "osm_type": "nodes" }, "geometry": { "type": "Point", "coordinates": [ 30.7708333, -24.6055556 ] } },
{ "type": "Feature", "properties": { "name": "Haartbeesfontein", "name:en": null, "place": "town", "landuse": null, "population": null, "is_in": "North West, South Africa", "source": "sagns", "name:af": null, "name:nr": null, "name:st": null, "name:nso": null, "name:ssw": null, "name:ts": null, "name:tn": null, "name:ve": null, "name:xh": null, "name:zu": null, "osm_id": 262720464, "osm_type": "nodes" }, "geometry": { "type": "Point", "coordinates": [ 27.5061111, -25.4375 ] } },
{ "type": "Feature", "properties": { "name": "Hartbeesfontein", "name:en": null, "place": "town", "landuse": null, "population": null, "is_in": "North West, South Africa", "source": "sagns", "name:af": null, "name:nr": null, "name:st": null, "name:nso": null, "name:ssw": null, "name:ts": null, "name:tn": null, "name:ve": null, "name:xh": null, "name:zu": null, "osm_id": 262720496, "osm_type": "nodes" }, "geometry": { "type": "Point", "coordinates": [ 27.4861111, -25.4366667 ] } },
{ "type": "Feature", "properties": { "name": "Homer", "name:en": null, "place": "town", "landuse": null, "population": null, "is_in": "Gauteng, South Africa", "source": "sagns", "name:af": null, "name:nr": null, "name:st": null, "name:nso": null, "name:ssw": null, "name:ts": null, "name:tn": null, "name:ve": null, "name:xh": null, "name:zu": null, "osm_id": 262720604, "osm_type": "nodes" }, "geometry": { "type": "Point", "coordinates": [ 27.8913889, -26.6491667 ] } },
{ "type": "Feature", "properties": { "name": "Kagiso", "name:en": null, "place": "town", "landuse": null, "population": null, "is_in": "North West, South Africa", "source": "sagns", "name:af": null, "name:nr": null, "name:st": null, "name:nso": null, "name:ssw": null, "name:ts": null, "name:tn": null, "name:ve": null, "name:xh": null, "name:zu": null, "osm_id": 262720757, "osm_type": "nodes" }, "geometry": { "type": "Point", "coordinates": [ 27.0786111, -25.3544444 ] } },
{ "type": "Feature", "properties": { "name": "Kamsogwaba", "name:en": null, "place": "town", "landuse": null, "population": null, "is_in": "Mpumalanga, South Africa", "source": "sagns", "name:af": null, "name:nr": null, "name:st": null, "name:nso": null, "name:ssw": null, "name:ts": null, "name:tn": null, "name:ve": null, "name:xh": null, "name:zu": null, "osm_id": 262720767, "osm_type": "nodes" }, "geometry": { "type": "Point", "coordinates": [ 31.1805556, -25.3333333 ] } },
{ "type": "Feature", "properties": { "name": "Kanana", "name:en": null, "place": "town", "landuse": null, "population": null, "is_in": "Mpumalanga, South Africa", "source": "sagns", "name:af": null, "name:nr": null, "name:st": null, "name:nso": null, "name:ssw": null, "name:ts": null, "name:tn": null, "name:ve": null, "name:xh": null, "name:zu": null, "osm_id": 262720768, "osm_type": "nodes" }, "geometry": { "type": "Point", "coordinates": [ 30.8102778, -24.6636111 ] } },
{ "type": "Feature", "properties": { "name": "Kitty", "name:en": null, "place": "town", "landuse": null, "population": null, "is_in": "Free State, South Africa", "source": "sagns", "name:af": null, "name:nr": null, "name:st": null, "name:nso": null, "name:ssw": null, "name:ts": null, "name:tn": null, "name:ve": null, "name:xh": null, "name:zu": null, "osm_id": 262720830, "osm_type": "nodes" }, "geometry": { "type": "Point", "coordinates": [ 26.8297222, -28.1291667 ] } },
{ "type": "Feature", "properties": { "name": "Lalini", "name:en": null, "place": "town", "landuse": null, "population": null, "is_in": "Eastern Cape, South Africa", "source": "sagns", "name:af": null, "name:nr": null, "name:st": null, "name:nso": null, "name:ssw": null, "name:ts": null, "name:tn": null, "name:ve": null, "name:xh": null, "name:zu": null, "osm_id": 262720936, "osm_type": "nodes" }, "geometry": { "type": "Point", "coordinates": [ 27.6422222, -32.9838889 ] } },
{ "type": "Feature", "properties": { "name": "Lekubu", "name:en": null, "place": "town", "landuse": null, "population": null, "is_in": "North West, South Africa", "source": "sagns", "name:af": null, "name:nr": null, "name:st": null, "name:nso": null, "name:ssw": null, "name:ts": null, "name:tn": null, "name:ve": null, "name:xh": null, "name:zu": null, "osm_id": 262720957, "osm_type": "nodes" }, "geometry": { "type": "Point", "coordinates": [ 26.0908333, -25.3852778 ] } },
{ "type": "Feature", "properties": { "name": "Mapetla", "name:en": null, "place": "town", "landuse": null, "population": null, "is_in": "North West, South Africa", "source": "sagns", "name:af": null, "name:nr": null, "name:st": null, "name:nso": null, "name:ssw": null, "name:ts": null, "name:tn": null, "name:ve": null, "name:xh": null, "name:zu": null, "osm_id": 262721250, "osm_type": "nodes" }, "geometry": { "type": "Point", "coordinates": [ 27.9522222, -25.6066667 ] } },
{ "type": "Feature", "properties": { "name": "Moiletswane", "name:en": null, "place": "town", "landuse": null, "population": null, "is_in": "North West, South Africa", "source": "sagns", "name:af": null, "name:nr": null, "name:st": null, "name:nso": null, "name:ssw": null, "name:ts": null, "name:tn": null, "name:ve": null, "name:xh": null, "name:zu": null, "osm_id": 262721458, "osm_type": "nodes" }, "geometry": { "type": "Point", "coordinates": [ 27.9288889, -25.3813889 ] } },
{ "type": "Feature", "properties": { "name": "Mothutlung", "name:en": null, "place": "town", "landuse": null, "population": null, "is_in": "North West, South Africa", "source": "sagns", "name:af": null, "name:nr": null, "name:st": null, "name:nso": null, "name:ssw": null, "name:ts": null, "name:tn": null, "name:ve": null, "name:xh": null, "name:zu": null, "osm_id": 262721522, "osm_type": "nodes" }, "geometry": { "type": "Point", "coordinates": [ 27.8975, -25.6033333 ] } },
{ "type": "Feature", "properties": { "name": "Motsheko", "name:en": null, "place": "town", "landuse": null, "population": null, "is_in": "North West, South Africa", "source": "sagns", "name:af": null, "name:nr": null, "name:st": null, "name:nso": null, "name:ssw": null, "name:ts": null, "name:tn": null, "name:ve": null, "name:xh": null, "name:zu": null, "osm_id": 262721540, "osm_type": "nodes" }, "geometry": { "type": "Point", "coordinates": [ 27.975, -25.2152778 ] } },
{ "type": "Feature", "properties": { "name": "Ngwetsintshage", "name:en": null, "place": "town", "landuse": null, "population": null, "is_in": "Mpumalanga, South Africa", "source": "sagns", "name:af": null, "name:nr": null, "name:st": null, "name:nso": null, "name:ssw": null, "name:ts": null, "name:tn": null, "name:ve": null, "name:xh": null, "name:zu": null, "osm_id": 262721639, "osm_type": "nodes" }, "geometry": { "type": "Point", "coordinates": [ 30.7988889, -24.6752778 ] } },
{ "type": "Feature", "properties": { "name": "Portobello", "name:en": null, "place": "town", "landuse": null, "population": null, "is_in": "KwaZulu-Natal, South Africa", "source": "sagns", "name:af": null, "name:nr": null, "name:st": null, "name:nso": null, "name:ssw": null, "name:ts": null, "name:tn": null, "name:ve": null, "name:xh": null, "name:zu": null, "osm_id": 262721948, "osm_type": "nodes" }, "geometry": { "type": "Point", "coordinates": [ 30.2613889, -31.0022222 ] } },
{ "type": "Feature", "properties": { "name": "Qumra", "name:en": null, "place": "town", "landuse": null, "population": null, "is_in": "Eastern Cape, South Africa", "source": "sagns", "name:af": null, "name:nr": null, "name:st": null, "name:nso": null, "name:ssw": null, "name:ts": null, "name:tn": null, "name:ve": null, "name:xh": null, "name:zu": null, "osm_id": 262721975, "osm_type": "nodes" }, "geometry": { "type": "Point", "coordinates": [ 27.8872222, -32.5894444 ] } },
{ "type": "Feature", "properties": { "name": "Rasimone", "name:en": null, "place": "town", "landuse": null, "population": null, "is_in": "North West, South Africa", "source": "sagns", "name:af": null, "name:nr": null, "name:st": null, "name:nso": null, "name:ssw": null, "name:ts": null, "name:tn": null, "name:ve": null, "name:xh": null, "name:zu": null, "osm_id": 262721991, "osm_type": "nodes" }, "geometry": { "type": "Point", "coordinates": [ 27.1130556, -25.4627778 ] } },
{ "type": "Feature", "properties": { "name": "Rietgat", "name:en": null, "place": "town", "landuse": null, "population": null, "is_in": "North West, South Africa", "source": "sagns", "name:af": null, "name:nr": null, "name:st": null, "name:nso": null, "name:ssw": null, "name:ts": null, "name:tn": null, "name:ve": null, "name:xh": null, "name:zu": null, "osm_id": 262722022, "osm_type": "nodes" }, "geometry": { "type": "Point", "coordinates": [ 27.8233333, -25.3913889 ] } },
{ "type": "Feature", "properties": { "name": "Saaiplaas", "name:en": null, "place": "town", "landuse": null, "population": null, "is_in": "Free State, South Africa", "source": "sagns", "name:af": null, "name:nr": null, "name:st": null, "name:nso": null, "name:ssw": null, "name:ts": null, "name:tn": null, "name:ve": null, "name:xh": null, "name:zu": null, "osm_id": 262722082, "osm_type": "nodes" }, "geometry": { "type": "Point", "coordinates": [ 26.8663889, -28.0625 ] } },
{ "type": "Feature", "properties": { "name": "Sisulu Village", "name:en": null, "place": "town", "landuse": null, "population": null, "is_in": "Eastern Cape, South Africa", "source": "sagns", "name:af": null, "name:nr": null, "name:st": null, "name:nso": null, "name:ssw": null, "name:ts": null, "name:tn": null, "name:ve": null, "name:xh": null, "name:zu": null, "osm_id": 262722182, "osm_type": "nodes" }, "geometry": { "type": "Point", "coordinates": [ 27.7011111, -32.9566667 ] } },
{ "type": "Feature", "properties": { "name": "Thembilihle", "name:en": null, "place": "town", "landuse": null, "population": null, "is_in": "Eastern Cape, South Africa", "source": "sagns", "name:af": null, "name:nr": null, "name:st": null, "name:nso": null, "name:ssw": null, "name:ts": null, "name:tn": null, "name:ve": null, "name:xh": null, "name:zu": null, "osm_id": 262722274, "osm_type": "nodes" }, "geometry": { "type": "Point", "coordinates": [ 27.7652778, -32.9266667 ] } },
{ "type": "Feature", "properties": { "name": "Tlhowe", "name:en": null, "place": "town", "landuse": null, "population": null, "is_in": "North West, South Africa", "source": "sagns", "name:af": null, "name:nr": null, "name:st": null, "name:nso": null, "name:ssw": null, "name:ts": null, "name:tn": null, "name:ve": null, "name:xh": null, "name:zu": null, "osm_id": 262722288, "osm_type": "nodes" }, "geometry": { "type": "Point", "coordinates": [ 27.9113889, -25.1152778 ] } },
{ "type": "Feature", "properties": { "name": "Tolofiyeni", "name:en": null, "place": "town", "landuse": null, "population": null, "is_in": "Eastern Cape, South Africa", "source": "sagns", "name:af": null, "name:nr": null, "name:st": null, "name:nso": null, "name:ssw": null, "name:ts": null, "name:tn": null, "name:ve": null, "name:xh": null, "name:zu": null, "osm_id": 262722291, "osm_type": "nodes" }, "geometry": { "type": "Point", "coordinates": [ 27.3313889, -32.8661111 ] } },
{ "type": "Feature", "properties": { "name": "Tsitsing", "name:en": null, "place": "town", "landuse": null, "population": null, "is_in": "North West, South Africa", "source": "sagns", "name:af": null, "name:nr": null, "name:st": null, "name:nso": null, "name:ssw": null, "name:ts": null, "name:tn": null, "name:ve": null, "name:xh": null, "name:zu": null, "osm_id": 262722298, "osm_type": "nodes" }, "geometry": { "type": "Point", "coordinates": [ 27.3213889, -25.4677778 ] } },
{ "type": "Feature", "properties": { "name": "Velwano", "name:en": null, "place": "town", "landuse": null, "population": null, "is_in": "Eastern Cape, South Africa", "source": "sagns", "name:af": null, "name:nr": null, "name:st": null, "name:nso": null, "name:ssw": null, "name:ts": null, "name:tn": null, "name:ve": null, "name:xh": null, "name:zu": null, "osm_id": 262722402, "osm_type": "nodes" }, "geometry": { "type": "Point", "coordinates": [ 27.7744444, -32.9302778 ] } },
{ "type": "Feature", "properties": { "name": "Wolwefontein", "name:en": null, "place": "town", "landuse": null, "population": null, "is_in": "Eastern Cape, South Africa", "source": "sagns", "name:af": null, "name:nr": null, "name:st": null, "name:nso": null, "name:ssw": null, "name:ts": null, "name:tn": null, "name:ve": null, "name:xh": null, "name:zu": null, "osm_id": 262722534, "osm_type": "nodes" }, "geometry": { "type": "Point", "coordinates": [ 24.8269444, -33.2941667 ] } },
{ "type": "Feature", "properties": { "name": "Zidenge", "name:en": null, "place": "town", "landuse": null, "population": null, "is_in": "Eastern Cape, South Africa", "source": "sagns", "name:af": null, "name:nr": null, "name:st": null, "name:nso": null, "name:ssw": null, "name:ts": null, "name:tn": null, "name:ve": null, "name:xh": null, "name:zu": null, "osm_id": 262722547, "osm_type": "nodes" }, "geometry": { "type": "Point", "coordinates": [ 27.3213889, -32.6741667 ] } },
{ "type": "Feature", "properties": { "name": "Zindenge", "name:en": null, "place": "town", "landuse": null, "population": null, "is_in": "Eastern Cape, South Africa", "source": "sagns", "name:af": null, "name:nr": null, "name:st": null, "name:nso": null, "name:ssw": null, "name:ts": null, "name:tn": null, "name:ve": null, "name:xh": null, "name:zu": null, "osm_id": 262722549, "osm_type": "nodes" }, "geometry": { "type": "Point", "coordinates": [ 27.2872222, -32.6697222 ] } },
{ "type": "Feature", "properties": { "name": "Zizamele", "name:en": null, "place": "town", "landuse": null, "population": null, "is_in": "Eastern Cape, South Africa", "source": "sagns", "name:af": null, "name:nr": null, "name:st": null, "name:nso": null, "name:ssw": null, "name:ts": null, "name:tn": null, "name:ve": null, "name:xh": null, "name:zu": null, "osm_id": 262722562, "osm_type": "nodes" }, "geometry": { "type": "Point", "coordinates": [ 28.1988889, -32.3347222 ] } },
{ "type": "Feature", "properties": { "name": "Kutlwanong", "name:en": null, "place": "town", "landuse": null, "population": null, "is_in": "Free State, South Africa", "source": "sagns", "name:af": null, "name:nr": null, "name:st": null, "name:nso": null, "name:ssw": null, "name:ts": null, "name:tn": null, "name:ve": null, "name:xh": null, "name:zu": null, "osm_id": 262720892, "osm_type": "nodes" }, "geometry": { "type": "Point", "coordinates": [ 26.7647222, -27.8605556 ] } },
{ "type": "Feature", "properties": { "name": "Lebotlwane", "name:en": null, "place": "town", "landuse": null, "population": null, "is_in": "North West, South Africa", "source": "sagns", "name:af": null, "name:nr": null, "name:st": null, "name:nso": null, "name:ssw": null, "name:ts": null, "name:tn": null, "name:ve": null, "name:xh": null, "name:zu": null, "osm_id": 262720949, "osm_type": "nodes" }, "geometry": { "type": "Point", "coordinates": [ 27.9302778, -25.0477778 ] } },
{ "type": "Feature", "properties": { "name": "Leisure Crest", "name:en": null, "place": "town", "landuse": null, "population": null, "is_in": "KwaZulu-Natal, South Africa", "source": "sagns", "name:af": null, "name:nr": null, "name:st": null, "name:nso": null, "name:ssw": null, "name:ts": null, "name:tn": null, "name:ve": null, "name:xh": null, "name:zu": null, "osm_id": 262720954, "osm_type": "nodes" }, "geometry": { "type": "Point", "coordinates": [ 30.2461111, -31.0186111 ] } },
{ "type": "Feature", "properties": { "name": "Lekwadi", "name:en": null, "place": "town", "landuse": null, "population": null, "is_in": "North West, South Africa", "source": "sagns", "name:af": null, "name:nr": null, "name:st": null, "name:nso": null, "name:ssw": null, "name:ts": null, "name:tn": null, "name:ve": null, "name:xh": null, "name:zu": null, "osm_id": 262720958, "osm_type": "nodes" }, "geometry": { "type": "Point", "coordinates": [ 27.0663889, -25.3783333 ] } },
{ "type": "Feature", "properties": { "name": "Masibambane", "name:en": null, "place": "town", "landuse": null, "population": null, "is_in": "Eastern Cape, South Africa", "source": "sagns", "name:af": null, "name:nr": null, "name:st": null, "name:nso": null, "name:ssw": null, "name:ts": null, "name:tn": null, "name:ve": null, "name:xh": null, "name:zu": null, "osm_id": 262721270, "osm_type": "nodes" }, "geometry": { "type": "Point", "coordinates": [ 27.7519444, -32.9208333 ] } },
{ "type": "Feature", "properties": { "name": "Matolong", "name:en": null, "place": "town", "landuse": null, "population": null, "is_in": "North West, South Africa", "source": "sagns", "name:af": null, "name:nr": null, "name:st": null, "name:nso": null, "name:ssw": null, "name:ts": null, "name:tn": null, "name:ve": null, "name:xh": null, "name:zu": null, "osm_id": 262721282, "osm_type": "nodes" }, "geometry": { "type": "Point", "coordinates": [ 24.7538889, -27.5805556 ] } },
{ "type": "Feature", "properties": { "name": "Nqutu", "name:en": null, "place": "town", "landuse": null, "population": null, "is_in": "KwaZulu-Natal, South Africa", "source": "sagns", "name:af": null, "name:nr": null, "name:st": null, "name:nso": null, "name:ssw": null, "name:ts": null, "name:tn": null, "name:ve": null, "name:xh": null, "name:zu": null, "osm_id": 94823679, "osm_type": "nodes" }, "geometry": { "type": "Point", "coordinates": [ 30.6733333, -28.2166667 ] } },
{ "type": "Feature", "properties": { "name": "Tulbach Flats", "name:en": null, "place": null, "landuse": "residential", "population": null, "is_in": null, "source": null, "name:af": null, "name:nr": null, "name:st": null, "name:nso": null, "name:ssw": null, "name:ts": null, "name:tn": null, "name:ve": null, "name:xh": null, "name:zu": null, "osm_id": 7464521989, "osm_type": "nodes" }, "geometry": { "type": "Point", "coordinates": [ 26.7789526, -26.8417343 ] } },
{ "type": "Feature", "properties": { "name": "Bosdorp", "name:en": null, "place": "village", "landuse": null, "population": null, "is_in": null, "source": null, "name:af": null, "name:nr": null, "name:st": null, "name:nso": null, "name:ssw": null, "name:ts": null, "name:tn": null, "name:ve": null, "name:xh": null, "name:zu": null, "osm_id": 7410218687, "osm_type": "nodes" }, "geometry": { "type": "Point", "coordinates": [ 19.0398803, -32.3544885 ] } },
{ "type": "Feature", "properties": { "name": "Middeldeel", "name:en": null, "place": "town", "landuse": null, "population": null, "is_in": "Free State, South Africa", "source": "sagns", "name:af": null, "name:nr": null, "name:st": null, "name:nso": null, "name:ssw": null, "name:ts": null, "name:tn": null, "name:ve": null, "name:xh": null, "name:zu": null, "osm_id": 262710129, "osm_type": "nodes" }, "geometry": { "type": "Point", "coordinates": [ 26.8375, -29.0663889 ] } },
{ "type": "Feature", "properties": { "name": "Ga-Rampuru", "name:en": null, "place": "village", "landuse": null, "population": null, "is_in": "Limpopo, South Africa", "source": "sagns", "name:af": null, "name:nr": null, "name:st": null, "name:nso": null, "name:ssw": null, "name:ts": null, "name:tn": null, "name:ve": null, "name:xh": null, "name:zu": null, "osm_id": 262720331, "osm_type": "nodes" }, "geometry": { "type": "Point", "coordinates": [ 29.1147222, -23.67 ] } },
{ "type": "Feature", "properties": { "name": "Maupye", "name:en": null, "place": "village", "landuse": null, "population": null, "is_in": "Limpopo, South Africa", "source": "sagns", "name:af": null, "name:nr": null, "name:st": null, "name:nso": null, "name:ssw": null, "name:ts": null, "name:tn": null, "name:ve": null, "name:xh": null, "name:zu": null, "osm_id": 262721290, "osm_type": "nodes" }, "geometry": { "type": "Point", "coordinates": [ 29.1866667, -23.7041667 ] } },
{ "type": "Feature", "properties": { "name": "Mphela", "name:en": null, "place": "village", "landuse": null, "population": null, "is_in": "Limpopo, South Africa", "source": "sagns", "name:af": null, "name:nr": null, "name:st": null, "name:nso": null, "name:ssw": null, "name:ts": null, "name:tn": null, "name:ve": null, "name:xh": null, "name:zu": null, "osm_id": 262721546, "osm_type": "nodes" }, "geometry": { "type": "Point", "coordinates": [ 29.2472222, -23.6855556 ] } },
{ "type": "Feature", "properties": { "name": "Rapitsi", "name:en": null, "place": "village", "landuse": null, "population": null, "is_in": "Limpopo, South Africa", "source": "sagns", "name:af": null, "name:nr": null, "name:st": null, "name:nso": null, "name:ssw": null, "name:ts": null, "name:tn": null, "name:ve": null, "name:xh": null, "name:zu": null, "osm_id": 262721990, "osm_type": "nodes" }, "geometry": { "type": "Point", "coordinates": [ 29.1066667, -23.5913889 ] } },
{ "type": "Feature", "properties": { "name": "Kamberg", "name:en": null, "place": "village", "landuse": null, "population": null, "is_in": null, "source": null, "name:af": null, "name:nr": null, "name:st": null, "name:nso": null, "name:ssw": null, "name:ts": null, "name:tn": null, "name:ve": null, "name:xh": null, "name:zu": null, "osm_id": 2776989830, "osm_type": "nodes" }, "geometry": { "type": "Point", "coordinates": [ 29.6675409, -29.3848141 ] } },
{ "type": "Feature", "properties": { "name": "Tergniet", "name:en": null, "place": "village", "landuse": null, "population": null, "is_in": "Western Cape, South Africa", "source": "sagns", "name:af": null, "name:nr": null, "name:st": null, "name:nso": null, "name:ssw": null, "name:ts": null, "name:tn": null, "name:ve": null, "name:xh": null, "name:zu": null, "osm_id": 262722259, "osm_type": "nodes" }, "geometry": { "type": "Point", "coordinates": [ 22.1887723, -34.0690569 ] } },
{ "type": "Feature", "properties": { "name": "The Island", "name:en": null, "place": "village", "landuse": null, "population": null, "is_in": "Western Cape, South Africa", "source": "sagns", "name:af": null, "name:nr": null, "name:st": null, "name:nso": null, "name:ssw": null, "name:ts": null, "name:tn": null, "name:ve": null, "name:xh": null, "name:zu": null, "osm_id": 262722270, "osm_type": "nodes" }, "geometry": { "type": "Point", "coordinates": [ 22.2382521, -34.0521443 ] } },
{ "type": "Feature", "properties": { "name": "Reebok", "name:en": null, "place": "village", "landuse": null, "population": null, "is_in": "Western Cape, South Africa", "source": "sagns", "name:af": null, "name:nr": null, "name:st": null, "name:nso": null, "name:ssw": null, "name:ts": null, "name:tn": null, "name:ve": null, "name:xh": null, "name:zu": null, "osm_id": 305672386, "osm_type": "nodes" }, "geometry": { "type": "Point", "coordinates": [ 22.1765039, -34.0739945 ] } },
{ "type": "Feature", "properties": { "name": "Geelhoutboomberg", "name:en": null, "place": "isolated_dwelling", "landuse": null, "population": null, "is_in": null, "source": null, "name:af": null, "name:nr": null, "name:st": null, "name:nso": null, "name:ssw": null, "name:ts": null, "name:tn": null, "name:ve": null, "name:xh": null, "name:zu": null, "osm_id": 799836557, "osm_type": "nodes" }, "geometry": { "type": "Point", "coordinates": [ 22.3717268, -33.9205703 ] } },
{ "type": "Feature", "properties": { "name": "Kleinplaat", "name:en": null, "place": "isolated_dwelling", "landuse": null, "population": null, "is_in": "Western Cape, South Africa", "source": "sagns", "name:af": null, "name:nr": null, "name:st": null, "name:nso": null, "name:ssw": null, "name:ts": null, "name:tn": null, "name:ve": null, "name:xh": null, "name:zu": null, "osm_id": 262707553, "osm_type": "nodes" }, "geometry": { "type": "Point", "coordinates": [ 22.6729889, -33.850893 ] } },
{ "type": "Feature", "properties": { "name": "Bergsig", "name:en": null, "place": "village", "landuse": null, "population": null, "is_in": "Western Cape, South Africa", "source": "sagns", "name:af": null, "name:nr": null, "name:st": null, "name:nso": null, "name:ssw": null, "name:ts": null, "name:tn": null, "name:ve": null, "name:xh": null, "name:zu": null, "osm_id": 262719262, "osm_type": "nodes" }, "geometry": { "type": "Point", "coordinates": [ 22.2133333, -34.0538889 ] } },
{ "type": "Feature", "properties": { "name": "Die Erwe", "name:en": null, "place": "hamlet", "landuse": null, "population": null, "is_in": "Western Cape, South Africa", "source": "sagns", "name:af": null, "name:nr": null, "name:st": null, "name:nso": null, "name:ssw": null, "name:ts": null, "name:tn": null, "name:ve": null, "name:xh": null, "name:zu": null, "osm_id": 262719861, "osm_type": "nodes" }, "geometry": { "type": "Point", "coordinates": [ 22.0571884, -34.0486604 ] } },
{ "type": "Feature", "properties": { "name": "Glentana Hills", "name:en": null, "place": "village", "landuse": null, "population": null, "is_in": "Western Cape, South Africa", "source": "sagns", "name:af": null, "name:nr": null, "name:st": null, "name:nso": null, "name:ssw": null, "name:ts": null, "name:tn": null, "name:ve": null, "name:xh": null, "name:zu": null, "osm_id": 262720417, "osm_type": "nodes" }, "geometry": { "type": "Point", "coordinates": [ 22.289317, -34.0473288 ] } },
{ "type": "Feature", "properties": { "name": "Greenhaven", "name:en": null, "place": "village", "landuse": null, "population": null, "is_in": "Western Cape, South Africa", "source": "sagns", "name:af": null, "name:nr": null, "name:st": null, "name:nso": null, "name:ssw": null, "name:ts": null, "name:tn": null, "name:ve": null, "name:xh": null, "name:zu": null, "osm_id": 262720448, "osm_type": "nodes" }, "geometry": { "type": "Point", "coordinates": [ 22.2091667, -34.0377778 ] } },
{ "type": "Feature", "properties": { "name": "Outeniquastrand", "name:en": null, "place": "village", "landuse": null, "population": null, "is_in": "Western Cape, South Africa", "source": "sagns", "name:af": null, "name:nr": null, "name:st": null, "name:nso": null, "name:ssw": null, "name:ts": null, "name:tn": null, "name:ve": null, "name:xh": null, "name:zu": null, "osm_id": 262721868, "osm_type": "nodes" }, "geometry": { "type": "Point", "coordinates": [ 22.2959118, -34.0498495 ] } },
{ "type": "Feature", "properties": { "name": "Suiderkruis", "name:en": null, "place": "village", "landuse": null, "population": null, "is_in": "Western Cape, South Africa", "source": "sagns", "name:af": null, "name:nr": null, "name:st": null, "name:nso": null, "name:ssw": null, "name:ts": null, "name:tn": null, "name:ve": null, "name:xh": null, "name:zu": null, "osm_id": 262722228, "osm_type": "nodes" }, "geometry": { "type": "Point", "coordinates": [ 22.2247222, -34.0575 ] } },
{ "type": "Feature", "properties": { "name": "Kololo", "name:en": null, "place": "village", "landuse": null, "population": null, "is_in": null, "source": null, "name:af": null, "name:nr": null, "name:st": null, "name:nso": null, "name:ssw": null, "name:ts": null, "name:tn": null, "name:ve": null, "name:xh": null, "name:zu": null, "osm_id": 2622433144, "osm_type": "nodes" }, "geometry": { "type": "Point", "coordinates": [ 27.8609707, -24.3799034 ] } },
{ "type": "Feature", "properties": { "name": "Tylers", "name:en": null, "place": "village", "landuse": null, "population": null, "is_in": null, "source": null, "name:af": null, "name:nr": null, "name:st": null, "name:nso": null, "name:ssw": null, "name:ts": null, "name:tn": null, "name:ve": null, "name:xh": null, "name:zu": null, "osm_id": 12485395008, "osm_type": "nodes" }, "geometry": { "type": "Point", "coordinates": [ 30.045066, -23.0665897 ] } },
{ "type": "Feature", "properties": { "name": "Mpungamhlophe", "name:en": null, "place": "village", "landuse": null, "population": null, "is_in": "KwaZulu-Natal, South Africa", "source": "sagns", "name:af": null, "name:nr": null, "name:st": null, "name:nso": null, "name:ssw": null, "name:ts": null, "name:tn": null, "name:ve": null, "name:xh": null, "name:zu": null, "osm_id": 262721548, "osm_type": "nodes" }, "geometry": { "type": "Point", "coordinates": [ 31.2541667, -28.2669444 ] } },
{ "type": "Feature", "properties": { "name": "Virginia", "name:en": null, "place": "town", "landuse": null, "population": null, "is_in": "Free State, South Africa", "source": "sagns", "name:af": null, "name:nr": null, "name:st": null, "name:nso": null, "name:ssw": null, "name:ts": null, "name:tn": null, "name:ve": null, "name:xh": null, "name:zu": null, "osm_id": 66135953, "osm_type": "nodes" }, "geometry": { "type": "Point", "coordinates": [ 26.859444, -28.103056 ] } },
{ "type": "Feature", "properties": { "name": "Ngope-Ts'ehla", "name:en": null, "place": "hamlet", "landuse": null, "population": null, "is_in": null, "source": "LSPP", "name:af": null, "name:nr": null, "name:st": null, "name:nso": null, "name:ssw": null, "name:ts": null, "name:tn": null, "name:ve": null, "name:xh": null, "name:zu": null, "osm_id": 11356572884, "osm_type": "nodes" }, "geometry": { "type": "Point", "coordinates": [ 28.6122125, -28.6041205 ] } },
{ "type": "Feature", "properties": { "name": "Ha Babitle", "name:en": null, "place": "village", "landuse": null, "population": null, "is_in": null, "source": "LSPP", "name:af": null, "name:nr": null, "name:st": null, "name:nso": null, "name:ssw": null, "name:ts": null, "name:tn": null, "name:ve": null, "name:xh": null, "name:zu": null, "osm_id": 11356572885, "osm_type": "nodes" }, "geometry": { "type": "Point", "coordinates": [ 28.6150503, -28.5991894 ] } },
{ "type": "Feature", "properties": { "name": "Saballa", "name:en": null, "place": "hamlet", "landuse": null, "population": null, "is_in": null, "source": "LSPP", "name:af": null, "name:nr": null, "name:st": null, "name:nso": null, "name:ssw": null, "name:ts": null, "name:tn": null, "name:ve": null, "name:xh": null, "name:zu": null, "osm_id": 11356572886, "osm_type": "nodes" }, "geometry": { "type": "Point", "coordinates": [ 28.6187839, -28.6021189 ] } },
{ "type": "Feature", "properties": { "name": "Moru-Mots'o", "name:en": null, "place": "isolated_dwelling", "landuse": null, "population": null, "is_in": null, "source": "LSPP", "name:af": null, "name:nr": null, "name:st": null, "name:nso": null, "name:ssw": null, "name:ts": null, "name:tn": null, "name:ve": null, "name:xh": null, "name:zu": null, "osm_id": 11356577210, "osm_type": "nodes" }, "geometry": { "type": "Point", "coordinates": [ 28.6295772, -28.6057265 ] } },
{ "type": "Feature", "properties": { "name": "Tesselaarsdal", "name:en": null, "place": "village", "landuse": null, "population": null, "is_in": "Western Cape, South Africa", "source": "sagns", "name:af": null, "name:nr": null, "name:st": null, "name:nso": null, "name:ssw": null, "name:ts": null, "name:tn": null, "name:ve": null, "name:xh": null, "name:zu": null, "osm_id": 262717690, "osm_type": "nodes" }, "geometry": { "type": "Point", "coordinates": [ 19.5261111, -34.375 ] } },
{ "type": "Feature", "properties": { "name": "Swartfontein", "name:en": null, "place": "village", "landuse": null, "population": null, "is_in": "Free State, South Africa", "source": "sagns", "name:af": null, "name:nr": null, "name:st": null, "name:nso": null, "name:ssw": null, "name:ts": null, "name:tn": null, "name:ve": null, "name:xh": null, "name:zu": null, "osm_id": 262722247, "osm_type": "nodes" }, "geometry": { "type": "Point", "coordinates": [ 26.7513889, -27.1461111 ] } },
{ "type": "Feature", "properties": { "name": "Nonceba", "name:en": null, "place": "village", "landuse": null, "population": null, "is_in": "North West, South Africa", "source": "sagns", "name:af": null, "name:nr": null, "name:st": null, "name:nso": null, "name:ssw": null, "name:ts": null, "name:tn": null, "name:ve": null, "name:xh": null, "name:zu": null, "osm_id": 262713801, "osm_type": "nodes" }, "geometry": { "type": "Point", "coordinates": [ 26.7180556, -24.9294444 ] } },
{ "type": "Feature", "properties": { "name": "Uitkyk", "name:en": null, "place": "village", "landuse": null, "population": null, "is_in": null, "source": "sagns", "name:af": null, "name:nr": null, "name:st": null, "name:nso": null, "name:ssw": null, "name:ts": null, "name:tn": null, "name:ve": null, "name:xh": null, "name:zu": null, "osm_id": 262722322, "osm_type": "nodes" }, "geometry": { "type": "Point", "coordinates": [ 26.4305556, -25.2066667 ] } },
{ "type": "Feature", "properties": { "name": "Ka-Xialana", "name:en": null, "place": "village", "landuse": null, "population": null, "is_in": null, "source": null, "name:af": null, "name:nr": null, "name:st": null, "name:nso": null, "name:ssw": null, "name:ts": null, "name:tn": null, "name:ve": null, "name:xh": null, "name:zu": null, "osm_id": 2407646902, "osm_type": "nodes" }, "geometry": { "type": "Point", "coordinates": [ 30.2652776, -23.9322864 ] } },
{ "type": "Feature", "properties": { "name": "Upper Mnyameni", "name:en": null, "place": "hamlet", "landuse": null, "population": null, "is_in": null, "source": "sagns", "name:af": null, "name:nr": null, "name:st": null, "name:nso": null, "name:ssw": null, "name:ts": null, "name:tn": null, "name:ve": null, "name:xh": null, "name:zu": null, "osm_id": 7257910720, "osm_type": "nodes" }, "geometry": { "type": "Point", "coordinates": [ 27.0786111, -32.6194444 ] } },
{ "type": "Feature", "properties": { "name": "Nyanga", "name:en": null, "place": "hamlet", "landuse": null, "population": null, "is_in": null, "source": "sagns", "name:af": null, "name:nr": null, "name:st": null, "name:nso": null, "name:ssw": null, "name:ts": null, "name:tn": null, "name:ve": null, "name:xh": null, "name:zu": null, "osm_id": 7257910722, "osm_type": "nodes" }, "geometry": { "type": "Point", "coordinates": [ 27.1213889, -32.5880556 ] } },
{ "type": "Feature", "properties": { "name": "Mdeni", "name:en": null, "place": "hamlet", "landuse": null, "population": null, "is_in": null, "source": "sagns", "name:af": null, "name:nr": null, "name:st": null, "name:nso": null, "name:ssw": null, "name:ts": null, "name:tn": null, "name:ve": null, "name:xh": null, "name:zu": null, "osm_id": 7257910723, "osm_type": "nodes" }, "geometry": { "type": "Point", "coordinates": [ 26.9941667, -32.6738889 ] } },
{ "type": "Feature", "properties": { "name": "Magxagxeni", "name:en": null, "place": "hamlet", "landuse": null, "population": null, "is_in": null, "source": "sagns", "name:af": null, "name:nr": null, "name:st": null, "name:nso": null, "name:ssw": null, "name:ts": null, "name:tn": null, "name:ve": null, "name:xh": null, "name:zu": null, "osm_id": 7257910724, "osm_type": "nodes" }, "geometry": { "type": "Point", "coordinates": [ 26.9508333, -32.6194444 ] } },
{ "type": "Feature", "properties": { "name": "Lower Mnyameni", "name:en": null, "place": "hamlet", "landuse": null, "population": null, "is_in": null, "source": "sagns", "name:af": null, "name:nr": null, "name:st": null, "name:nso": null, "name:ssw": null, "name:ts": null, "name:tn": null, "name:ve": null, "name:xh": null, "name:zu": null, "osm_id": 7257910725, "osm_type": "nodes" }, "geometry": { "type": "Point", "coordinates": [ 27.1080556, -32.6213889 ] } },
{ "type": "Feature", "properties": { "name": "KwaGuquka", "name:en": null, "place": "hamlet", "landuse": null, "population": null, "is_in": null, "source": "sagns", "name:af": null, "name:nr": null, "name:st": null, "name:nso": null, "name:ssw": null, "name:ts": null, "name:tn": null, "name:ve": null, "name:xh": null, "name:zu": null, "osm_id": 7257910728, "osm_type": "nodes" }, "geometry": { "type": "Point", "coordinates": [ 26.9422222, -32.6455556 ] } },
{ "type": "Feature", "properties": { "name": "Esikhululweni", "name:en": null, "place": "hamlet", "landuse": null, "population": null, "is_in": null, "source": "sagns", "name:af": null, "name:nr": null, "name:st": null, "name:nso": null, "name:ssw": null, "name:ts": null, "name:tn": null, "name:ve": null, "name:xh": null, "name:zu": null, "osm_id": 7257910730, "osm_type": "nodes" }, "geometry": { "type": "Point", "coordinates": [ 26.96, -32.5966667 ] } },
{ "type": "Feature", "properties": { "name": "Emkhiwaneni", "name:en": null, "place": "hamlet", "landuse": null, "population": null, "is_in": null, "source": "sagns", "name:af": null, "name:nr": null, "name:st": null, "name:nso": null, "name:ssw": null, "name:ts": null, "name:tn": null, "name:ve": null, "name:xh": null, "name:zu": null, "osm_id": 7257910731, "osm_type": "nodes" }, "geometry": { "type": "Point", "coordinates": [ 26.9555556, -32.6280556 ] } },
{ "type": "Feature", "properties": { "name": "Thendele", "name:en": null, "place": "hamlet", "landuse": null, "population": null, "is_in": null, "source": null, "name:af": null, "name:nr": null, "name:st": null, "name:nso": null, "name:ssw": null, "name:ts": null, "name:tn": null, "name:ve": null, "name:xh": null, "name:zu": null, "osm_id": 7252706026, "osm_type": "nodes" }, "geometry": { "type": "Point", "coordinates": [ 28.9340168, -28.7099476 ] } },
{ "type": "Feature", "properties": { "name": "Embidlini", "name:en": null, "place": "hamlet", "landuse": null, "population": null, "is_in": null, "source": null, "name:af": null, "name:nr": null, "name:st": null, "name:nso": null, "name:ssw": null, "name:ts": null, "name:tn": null, "name:ve": null, "name:xh": null, "name:zu": null, "osm_id": 1347289441, "osm_type": "nodes" }, "geometry": { "type": "Point", "coordinates": [ 30.5427922, -28.5038136 ] } },
{ "type": "Feature", "properties": { "name": "Mqhedlana", "name:en": null, "place": "hamlet", "landuse": null, "population": null, "is_in": null, "source": null, "name:af": null, "name:nr": null, "name:st": null, "name:nso": null, "name:ssw": null, "name:ts": null, "name:tn": null, "name:ve": null, "name:xh": null, "name:zu": null, "osm_id": 1348522715, "osm_type": "nodes" }, "geometry": { "type": "Point", "coordinates": [ 30.608506, -28.2308151 ] } },
{ "type": "Feature", "properties": { "name": "Ngedla", "name:en": null, "place": "hamlet", "landuse": null, "population": null, "is_in": null, "source": null, "name:af": null, "name:nr": null, "name:st": null, "name:nso": null, "name:ssw": null, "name:ts": null, "name:tn": null, "name:ve": null, "name:xh": null, "name:zu": null, "osm_id": 1348609633, "osm_type": "nodes" }, "geometry": { "type": "Point", "coordinates": [ 30.6049147, -28.3090521 ] } },
{ "type": "Feature", "properties": { "name": "Klwayisi", "name:en": null, "place": "hamlet", "landuse": null, "population": null, "is_in": null, "source": null, "name:af": null, "name:nr": null, "name:st": null, "name:nso": null, "name:ssw": null, "name:ts": null, "name:tn": null, "name:ve": null, "name:xh": null, "name:zu": null, "osm_id": 1348631615, "osm_type": "nodes" }, "geometry": { "type": "Point", "coordinates": [ 30.6774502, -28.4054077 ] } },
{ "type": "Feature", "properties": { "name": "Maguzini", "name:en": null, "place": "hamlet", "landuse": null, "population": null, "is_in": "KwaZulu-Natal, South Africa", "source": "sagns", "name:af": null, "name:nr": null, "name:st": null, "name:nso": null, "name:ssw": null, "name:ts": null, "name:tn": null, "name:ve": null, "name:xh": null, "name:zu": null, "osm_id": 262709053, "osm_type": "nodes" }, "geometry": { "type": "Point", "coordinates": [ 30.7208333, -28.3333333 ] } },
{ "type": "Feature", "properties": { "name": "Purim Farm", "name:en": null, "place": "hamlet", "landuse": null, "population": null, "is_in": null, "source": null, "name:af": null, "name:nr": null, "name:st": null, "name:nso": null, "name:ssw": null, "name:ts": null, "name:tn": null, "name:ve": null, "name:xh": null, "name:zu": null, "osm_id": 1348522716, "osm_type": "nodes" }, "geometry": { "type": "Point", "coordinates": [ 30.7814071, -28.0045126 ] } },
{ "type": "Feature", "properties": { "name": "eMondlo", "name:en": null, "place": "town", "landuse": null, "population": null, "is_in": "KwaZulu-Natal, South Africa", "source": "sagns", "name:af": null, "name:nr": null, "name:st": null, "name:nso": null, "name:ssw": null, "name:ts": null, "name:tn": null, "name:ve": null, "name:xh": null, "name:zu": null, "osm_id": 262720063, "osm_type": "nodes" }, "geometry": { "type": "Point", "coordinates": [ 30.7213523, -27.9877834 ] } },
{ "type": "Feature", "properties": { "name": "Kwa-Thusi", "name:en": null, "place": "hamlet", "landuse": null, "population": null, "is_in": null, "source": null, "name:af": null, "name:nr": null, "name:st": null, "name:nso": null, "name:ssw": null, "name:ts": null, "name:tn": null, "name:ve": null, "name:xh": null, "name:zu": null, "osm_id": 1348609635, "osm_type": "nodes" }, "geometry": { "type": "Point", "coordinates": [ 30.7008743, -28.3662003 ] } },
{ "type": "Feature", "properties": { "name": "Hlazakazi", "name:en": null, "place": "hamlet", "landuse": null, "population": null, "is_in": null, "source": null, "name:af": null, "name:nr": null, "name:st": null, "name:nso": null, "name:ssw": null, "name:ts": null, "name:tn": null, "name:ve": null, "name:xh": null, "name:zu": null, "osm_id": 1348631597, "osm_type": "nodes" }, "geometry": { "type": "Point", "coordinates": [ 30.7228226, -28.4143167 ] } },
{ "type": "Feature", "properties": { "name": "Broadache", "name:en": null, "place": "hamlet", "landuse": null, "population": null, "is_in": null, "source": null, "name:af": null, "name:nr": null, "name:st": null, "name:nso": null, "name:ssw": null, "name:ts": null, "name:tn": null, "name:ve": null, "name:xh": null, "name:zu": null, "osm_id": 1348631617, "osm_type": "nodes" }, "geometry": { "type": "Point", "coordinates": [ 30.8220358, -28.4292658 ] } },
{ "type": "Feature", "properties": { "name": "Qwabe", "name:en": null, "place": "hamlet", "landuse": null, "population": null, "is_in": null, "source": null, "name:af": null, "name:nr": null, "name:st": null, "name:nso": null, "name:ssw": null, "name:ts": null, "name:tn": null, "name:ve": null, "name:xh": null, "name:zu": null, "osm_id": 1348631618, "osm_type": "nodes" }, "geometry": { "type": "Point", "coordinates": [ 30.7179521, -28.369228 ] } },
{ "type": "Feature", "properties": { "name": "Kwaluvisi", "name:en": null, "place": "hamlet", "landuse": null, "population": null, "is_in": "KwaZulu-Natal, South Africa", "source": "sagns", "name:af": null, "name:nr": null, "name:st": null, "name:nso": null, "name:ssw": null, "name:ts": null, "name:tn": null, "name:ve": null, "name:xh": null, "name:zu": null, "osm_id": 262708204, "osm_type": "nodes" }, "geometry": { "type": "Point", "coordinates": [ 30.6622935, -28.1957067 ] } },
{ "type": "Feature", "properties": { "name": "KwaNgedle", "name:en": null, "place": "hamlet", "landuse": null, "population": null, "is_in": "KwaZulu-Natal, South Africa", "source": "sagns", "name:af": null, "name:nr": null, "name:st": null, "name:nso": null, "name:ssw": null, "name:ts": null, "name:tn": null, "name:ve": null, "name:xh": null, "name:zu": null, "osm_id": 262708345, "osm_type": "nodes" }, "geometry": { "type": "Point", "coordinates": [ 30.6547222, -28.2166667 ] } },
{ "type": "Feature", "properties": { "name": "Kwazicole", "name:en": null, "place": "hamlet", "landuse": null, "population": null, "is_in": "KwaZulu-Natal, South Africa", "source": "sagns", "name:af": null, "name:nr": null, "name:st": null, "name:nso": null, "name:ssw": null, "name:ts": null, "name:tn": null, "name:ve": null, "name:xh": null, "name:zu": null, "osm_id": 262708413, "osm_type": "nodes" }, "geometry": { "type": "Point", "coordinates": [ 30.6338158, -28.1780556 ] } },
{ "type": "Feature", "properties": { "name": "Enhlahleni", "name:en": null, "place": "hamlet", "landuse": null, "population": null, "is_in": null, "source": null, "name:af": null, "name:nr": null, "name:st": null, "name:nso": null, "name:ssw": null, "name:ts": null, "name:tn": null, "name:ve": null, "name:xh": null, "name:zu": null, "osm_id": 1348522597, "osm_type": "nodes" }, "geometry": { "type": "Point", "coordinates": [ 30.7685862, -27.9932618 ] } },
{ "type": "Feature", "properties": { "name": "Manyongazane", "name:en": null, "place": "hamlet", "landuse": null, "population": null, "is_in": null, "source": null, "name:af": null, "name:nr": null, "name:st": null, "name:nso": null, "name:ssw": null, "name:ts": null, "name:tn": null, "name:ve": null, "name:xh": null, "name:zu": null, "osm_id": 1348522600, "osm_type": "nodes" }, "geometry": { "type": "Point", "coordinates": [ 30.7817201, -28.1808438 ] } },
{ "type": "Feature", "properties": { "name": "Shayanyawo", "name:en": null, "place": "hamlet", "landuse": null, "population": null, "is_in": null, "source": null, "name:af": null, "name:nr": null, "name:st": null, "name:nso": null, "name:ssw": null, "name:ts": null, "name:tn": null, "name:ve": null, "name:xh": null, "name:zu": null, "osm_id": 1348522630, "osm_type": "nodes" }, "geometry": { "type": "Point", "coordinates": [ 30.7409853, -28.0798816 ] } },
{ "type": "Feature", "properties": { "name": "Magabeni", "name:en": null, "place": "hamlet", "landuse": null, "population": null, "is_in": null, "source": null, "name:af": null, "name:nr": null, "name:st": null, "name:nso": null, "name:ssw": null, "name:ts": null, "name:tn": null, "name:ve": null, "name:xh": null, "name:zu": null, "osm_id": 1348522647, "osm_type": "nodes" }, "geometry": { "type": "Point", "coordinates": [ 30.6999313, -28.151959 ] } },
{ "type": "Feature", "properties": { "name": "Qedusizi", "name:en": null, "place": "hamlet", "landuse": null, "population": null, "is_in": null, "source": null, "name:af": null, "name:nr": null, "name:st": null, "name:nso": null, "name:ssw": null, "name:ts": null, "name:tn": null, "name:ve": null, "name:xh": null, "name:zu": null, "osm_id": 1348522694, "osm_type": "nodes" }, "geometry": { "type": "Point", "coordinates": [ 30.6709266, -28.1929072 ] } },