Name,Latitude,Longitude,Open,Description
Komatipoort Relay Room,-25.43816939067363,31.95520414693343,1,
Komatipoort Diesel Deport,-25.44026536423744,31.95218235364478,1,"<img style=""max-width:500px;"" src=""files/WhatsApp Image 2023-06-20 at 09_1.54.37.jpeg""><img style=""max-width:500px;"" src=""files/WhatsApp Image 2023-06-20 at 09_1.54.31.jpeg""><img style=""max-width:500px;"" src=""files/WhatsApp Image 2023-06-20 at 09_1.53.03.jpeg""><img style=""max-width:500px;"" src=""files/WhatsApp Image 2023-06-20 at 09_1.52.58.jpeg""><img style=""max-width:500px;"" src=""files/WhatsApp Image 2023-06-20 at 09_1.52.01.jpeg""><img style=""max-width:500px;"" src=""files/WhatsApp Image 2023-06-20 at 09_1.51.47.jpeg""><img style=""max-width:500px;"" src=""files/WhatsApp Image 2023-06-20 at 09_1.51.24.jpeg""><img style=""max-width:500px;"" src=""files/WhatsApp Image 2023-06-20 at 09_1.51.08.jpeg"">"
Komatipoort Substation,-25.43398107542829,31.94664850325875,1,"<img style=""max-width:500px;"" src=""files/WhatsApp Image 2023-06-20 at 10_0.21.34.jpeg""><img style=""max-width:500px;"" src=""files/WhatsApp Image 2023-06-20 at 10_0.21.01.jpeg""><img style=""max-width:500px;"" src=""files/WhatsApp Image 2023-06-20 at 10_0.20.37.jpeg""><img style=""max-width:500px;"" src=""files/WhatsApp Image 2023-06-20 at 10_0.20.32.jpeg"">"
Koorsboom Relay Room (In Use),-25.42610833333333,31.92435833333333,1,"<img style=""max-width:500px;"" src=""files/WhatsApp Image 2023-06-20 at 10.45.03.jpeg""><img style=""max-width:500px;"" src=""files/WhatsApp Image 2023-06-20 at 10.44.42.jpeg""><img style=""max-width:500px;"" src=""files/WhatsApp Image 2023-06-20 at 10.44.34.jpeg""><img style=""max-width:500px;"" src=""files/WhatsApp Image 2023-06-20 at 10.44.21.jpeg"">Relay room kmp 213/1 no name at relay room
Overgrown vegetation around relay room. Hole at the main gate"
TEK Relay Room /Tenbosch Keerboom Relay - Functional,-25.41629021693526,31.85282520941612,1,"Kmp 205/10 next to unnamed relay room

D<img style=""max-width:500px;"" src=""files/WhatsApp Image 2023-06-20 at 11.17.23.jpeg""><img style=""max-width:500px;"" src=""files/WhatsApp Image 2023-06-20 at 11.17.09.jpeg""><img style=""max-width:500px;"" src=""files/WhatsApp Image 2023-06-20 at 11.16.52.jpeg""><img style=""max-width:500px;"" src=""files/WhatsApp Image 2023-06-20 at 11.16.39.jpeg"">oors locked, gate locked , fence intact
Overgrown vegetation around relay room"
Tenboch Substation (In Use),-25.41737222222222,31.83772222222223,1,"Tenbisch substation.
<img style=""max-width:500px;"" src=""files/WhatsApp Image 2023-06-20 at 11.24.44.jpeg""><img style=""max-width:500px;"" src=""files/WhatsApp Image 2023-06-20 at 11.23.51.jpeg""><img style=""max-width:500px;"" src=""files/WhatsApp Image 2023-06-20 at 11.23.38.jpeg""><img style=""max-width:500px;"" src=""files/WhatsApp Image 2023-06-20 at 11.23.20.jpeg"">All in tact"
Tenboch Relay room,-25.42474444444445,31.82103333333333,1,"Tenboch Relay room, no padlock,<img style=""max-width:500px;"" src=""files/WhatsApp Image 2023-06-20 at 11.41.19(1).jpeg""><img style=""max-width:500px;"" src=""files/WhatsApp Image 2023-06-20 at 11.41.11.jpeg""><img style=""max-width:500px;"" src=""files/WhatsApp Image 2023-06-20 at 11.40.49.jpeg""><img style=""max-width:500px;"" src=""files/WhatsApp Image 2023-06-20 at 11.40.40.jpeg""><img style=""max-width:500px;"" src=""files/WhatsApp Image 2023-06-20 at 11.40.30.jpeg""><img style=""max-width:500px;"" src=""files/WhatsApp Image 2023-06-20 at 11.41.19.jpeg"">"
Martloth Relay Room /Droogland Tenboch Relay Room),-25.43142777777778,31.799775,1,"<img style=""max-width:500px;"" src=""files/WhatsApp Image 2023-06-20 at 11.53.35.jpeg""><img style=""max-width:500px;"" src=""files/WhatsApp Image 2023-06-20 at 11.54.06.jpeg""><img style=""max-width:500px;"" src=""files/WhatsApp Image 2023-06-20 at 11.54.52.jpeg""><img style=""max-width:500px;"" src=""files/WhatsApp Image 2023-06-20 at 11.55.36.jpeg"">"
Drogland Substation,-25.43090583769131,31.73358127595864,1,"<img style=""max-width:500px;"" src=""files/WhatsApp Image 2023-06-20 at 13.56.16.jpeg""><img style=""max-width:500px;"" src=""files/WhatsApp Image 2023-06-20 at 13.56.08.jpeg""><img style=""max-width:500px;"" src=""files/WhatsApp Image 2023-06-20 at 13.56.02.jpeg""><img style=""max-width:500px;"" src=""files/WhatsApp Image 2023-06-20 at 13.54.51.jpeg""><img style=""max-width:500px;"" src=""files/WhatsApp Image 2023-06-20 at 13.54.32.jpeg""><img style=""max-width:500px;"" src=""files/WhatsApp Image 2023-06-20 at 13.54.16.jpeg""><img style=""max-width:500px;"" src=""files/WhatsApp Image 2023-06-20 at 13.54.11.jpeg"">"
Drogland Relay room,-25.43085576049424,31.73425320080219,1,"<img style=""max-width:500px;"" src=""files/WhatsApp Image 2023-06-20 at 13.52.52.jpeg""><img style=""max-width:500px;"" src=""files/WhatsApp Image 2023-06-20 at 13.52.34.jpeg""><img style=""max-width:500px;"" src=""files/WhatsApp Image 2023-06-20 at 13.52.21.jpeg"">"
Hectorspruit Relay Room (Vandalised),-25.42741917929473,31.69296073422292,1,"<img style=""max-width:500px;"" src=""files/WhatsApp Image 2023-06-20 at 14.26.48.jpeg""><img style=""max-width:500px;"" src=""files/WhatsApp Image 2023-06-20 at 14.26.07.jpeg""><img style=""max-width:500px;"" src=""files/WhatsApp Image 2023-06-20 at 14.25.46.jpeg"">"
Transnet Impala Hectorspruit Relay Room,-25.46048864867366,31.61314962185455,1,"Unnamed relay room next to the road.
Farm fence outside . Cannot access relay room from main road side<img style=""max-width:500px;"" src=""files/WhatsApp Image 2023-06-20 at 15.14.03.jpeg""><img style=""max-width:500px;"" src=""files/WhatsApp Image 2023-06-20 at 15.12.34.jpeg""><img style=""max-width:500px;"" src=""files/WhatsApp Image 2023-06-20 at 15.11.54.jpeg""><img style=""max-width:500px;"" src=""files/WhatsApp Image 2023-06-20 at 15.11.26.jpeg"">"
Impala Relay Room,-25.46595555555556,31.58841944444444,1,"<img style=""max-width:500px;"" src=""files/WhatsApp Image 2023-06-20 at 15.31.26.jpeg""><img style=""max-width:500px;"" src=""files/WhatsApp Image 2023-06-20 at 15.31.00.jpeg""><img style=""max-width:500px;"" src=""files/WhatsApp Image 2023-06-20 at 15.30.46.jpeg""><img style=""max-width:500px;"" src=""files/WhatsApp Image 2023-06-20 at 15.30.35.jpeg"">"
Malelane 2 Relay Room KMP 173/10,-25.47224108467567,31.56436367433487,1,"<img style=""max-width:500px;"" src=""files/WhatsApp Image 2023-06-20 at 15.49.01.jpeg""><img style=""max-width:500px;"" src=""files/WhatsApp Image 2023-06-20 at 15.49.25.jpeg""><img style=""max-width:500px;"" src=""files/WhatsApp Image 2023-06-20 at 15.49.50.jpeg""><img style=""max-width:500px;"" src=""files/WhatsApp Image 2023-06-20 at 15.50.46.jpeg"">"
Malelane Relay Room (Wall Damaged),-25.50483235388597,31.46553289595859,1,"<img style=""max-width:500px;"" src=""files/WhatsApp Image 2023-06-21 at 09.30.43(1).jpeg""><img style=""max-width:500px;"" src=""files/WhatsApp Image 2023-06-21 at 09.30.43.jpeg""><img style=""max-width:500px;"" src=""files/WhatsApp Image 2023-06-21 at 09.30.42.jpeg""><img style=""max-width:500px;"" src=""files/WhatsApp Image 2023-06-21 at 09.28.53.jpeg"">

Overgrown Vegetation around Relay Room"
Althorpe Substation,-25.52003020539097,31.41599484150639,1,"<img style=""max-width:500px;"" src=""files/WhatsApp Image 2023-06-21 at 08.39.44(1).jpeg""><img style=""max-width:500px;"" src=""files/WhatsApp Image 2023-06-21 at 08.39.44.jpeg""><img style=""max-width:500px;"" src=""files/WhatsApp Image 2023-06-21 at 08.39.29.jpeg""><img style=""max-width:500px;"" src=""files/WhatsApp Image 2023-06-21 at 08.39.03.jpeg""><img style=""max-width:500px;"" src=""files/WhatsApp Image 2023-06-21 at 08.38.54.jpeg"">. Access from N4."
Rockvale Relay Room,-25.52224444444445,31.40794166666667,1,"<img style=""max-width:500px;"" src=""files/WhatsApp Image 2023-06-21 at 08.28.06.jpeg""><img style=""max-width:500px;"" src=""files/WhatsApp Image 2023-06-21 at 08.27.41.jpeg""><img style=""max-width:500px;"" src=""files/WhatsApp Image 2023-06-21 at 08.27.04.jpeg""><img style=""max-width:500px;"" src=""files/WhatsApp Image 2023-06-21 at 08.26.54.jpeg"">

Gate not locked"
Kaapmuiden Tie,-25.53245833333333,31.33858118281208,1,"<img style=""max-width:500px;"" src=""files/WhatsApp Image 2023-06-20 at 17.14.05.jpeg""><img style=""max-width:500px;"" src=""files/WhatsApp Image 2023-06-20 at 17.13.40.jpeg""><img style=""max-width:500px;"" src=""files/WhatsApp Image 2023-06-20 at 17.13.22.jpeg""><img style=""max-width:500px;"" src=""files/WhatsApp Image 2023-06-20 at 17.13.06.jpeg"">"
Kaapmuiden Relay Room - RRB,-25.53294570776925,31.33930365140599,1,"<img style=""max-width:500px;"" src=""files/WhatsApp Image 2023-06-20 at 17.17.10.jpeg""><img style=""max-width:500px;"" src=""files/WhatsApp Image 2023-06-20 at 17.16.49.jpeg""><img style=""max-width:500px;"" src=""files/WhatsApp Image 2023-06-20 at 17.16.24.jpeg"">


Overgrown Bushes"
Kaapmuiden Relay Room,-25.52562786170071,31.3363412713093,1,"<img style=""max-width:500px;"" src=""files/WhatsApp Image 2023-06-22 at 08.07.11.jpeg""><img style=""max-width:500px;"" src=""files/WhatsApp Image 2023-06-22 at 08.06.23.jpeg""><img style=""max-width:500px;"" src=""files/WhatsApp Image 2023-06-22 at 08.06.05.jpeg""><img style=""max-width:500px;"" src=""files/WhatsApp Image 2023-06-22 at 08.05.49.jpeg""><img style=""max-width:500px;"" src=""files/WhatsApp Image 2023-06-22 at 08.05.30.jpeg"">"
Boulders,-25.54427352614058,31.30455255659832,1,"<img style=""max-width:500px;"" src=""files/WhatsApp Image 2023-06-20 at 16.49.07.jpeg""><img style=""max-width:500px;"" src=""files/WhatsApp Image 2023-06-20 at 16.48.10.jpeg""><img style=""max-width:500px;"" src=""files/WhatsApp Image 2023-06-20 at 16.47.31.jpeg""><img style=""max-width:500px;"" src=""files/WhatsApp Image 2023-06-20 at 16.45.23.jpeg""><img style=""max-width:500px;"" src=""files/WhatsApp Image 2023-06-20 at 16.45.13.jpeg""><img style=""max-width:500px;"" src=""files/WhatsApp Image 2023-06-20 at 16.44.46.jpeg"">"
Granietpoort Relay room.,-25.50933200012321,31.19788741760928,1,"<img style=""max-width:500px;"" src=""files/WhatsApp Image 2023-06-20 at 12.45.20(1).jpeg""><img style=""max-width:500px;"" src=""files/WhatsApp Image 2023-06-20 at 12.45.20.jpeg""><img style=""max-width:500px;"" src=""files/WhatsApp Image 2023-06-20 at 12.45.21(1).jpeg""><img style=""max-width:500px;"" src=""files/WhatsApp Image 2023-06-20 at 12.45.21.jpeg"">"
Granietpoort Substaion,-25.50608202494499,31.19420942367269,1,
Krokodilspoort Relay Room,-25.49333297486261,31.16372057227109,1,"<img style=""max-width:500px;"" src=""files/WhatsApp Image 2023-06-20 at 12.11.20.jpeg""><img style=""max-width:500px;"" src=""files/WhatsApp Image 2023-06-20 at 12.11.09.jpeg""><img style=""max-width:500px;"" src=""files/WhatsApp Image 2023-06-20 at 12.10.54.jpeg""><img style=""max-width:500px;"" src=""files/WhatsApp Image 2023-06-20 at 12.10.42.jpeg"">"
Karino Substation.,-25.47294800800826,31.10235928261995,1,"<img style=""max-width:500px;"" src=""files/WhatsApp Image 2023-06-20 at 11.05.58(1).jpeg""><img style=""max-width:500px;"" src=""files/WhatsApp Image 2023-06-20 at 11.05.58.jpeg""><img style=""max-width:500px;"" src=""files/WhatsApp Image 2023-06-20 at 11.05.33.jpeg""><img style=""max-width:500px;"" src=""files/WhatsApp Image 2023-06-20 at 11.05.17.jpeg""><img style=""max-width:500px;"" src=""files/WhatsApp Image 2023-06-20 at 11.05.09.jpeg"">


Karino Substation. Fence in back overgrown. Fence 90% intact."
Karino Relay room (Fence Damaged),-25.47221951985014,31.10001523933082,1,"<img style=""max-width:500px;"" src=""files/WhatsApp Image 2023-06-20 at 10.55.37.jpeg""><img style=""max-width:500px;"" src=""files/WhatsApp Image 2023-06-20 at 10.55.28.jpeg""><img style=""max-width:500px;"" src=""files/WhatsApp Image 2023-06-20 at 10.55.06.jpeg""><img style=""max-width:500px;"" src=""files/WhatsApp Image 2023-06-20 at 10.54.13.jpeg""><img style=""max-width:500px;"" src=""files/WhatsApp Image 2023-06-20 at 10.53.48.jpeg"">"
Mayfern Sub,-25.46168605503743,31.00886447385221,1,"<img style=""max-width:500px;"" src=""files/WhatsApp Image 2023-06-20 at 09_1.13.20.jpeg""><img style=""max-width:500px;"" src=""files/WhatsApp Image 2023-06-20 at 09_1.12.59(1).jpeg""><img style=""max-width:500px;"" src=""files/WhatsApp Image 2023-06-20 at 09_0.12.34.jpeg""><img style=""max-width:500px;"" src=""files/WhatsApp Image 2023-06-20 at 09_0.12.20.jpeg""><img style=""max-width:500px;"" src=""files/WhatsApp Image 2023-06-20 at 09_0.11.40.jpeg"">


Beams around sub.<img style=""max-width:500px;"" src=""files/WhatsApp Image 2023-06-20 at 09_0.15.00.jpeg"">"
Westaffin Substation,-25.45183851079659,30.92965274945849,1,"<img style=""max-width:500px;"" src=""files/WhatsApp Image 2023-06-19 at 08.07.44.jpeg""><img style=""max-width:500px;"" src=""files/WhatsApp Image 2023-06-19 at 08.06.10.jpeg""><img style=""max-width:500px;"" src=""files/WhatsApp Image 2023-06-19 at 08.05.54.jpeg"">"
Broham Relay Room,-25.44341179540464,30.88299296456391,1,"<img style=""max-width:500px;"" src=""files/WhatsApp Image 2023-06-19 at 09.36.16.jpeg""><img style=""max-width:500px;"" src=""files/WhatsApp Image 2023-06-19 at 09.35.49.jpeg""><img style=""max-width:500px;"" src=""files/WhatsApp Image 2023-06-19 at 09.35.12.jpeg""><img style=""max-width:500px;"" src=""files/WhatsApp Image 2023-06-19 at 09.34.56.jpeg""><img style=""max-width:500px;"" src=""files/WhatsApp Image 2023-06-19 at 09.34.52.jpeg""><img style=""max-width:500px;"" src=""files/WhatsApp Image 2023-06-19 at 09.34.22.jpeg"">"
Alkmar Substation.,-25.44633038978007,30.82966131940227,1,"Sub overgrown<img style=""max-width:500px;"" src=""files/WhatsApp Image 2023-06-19 at 11.04.54.jpeg""><img style=""max-width:500px;"" src=""files/WhatsApp Image 2023-06-19 at 11.04.43.jpeg"">"
Rivulets Relay Room,-25.43914860042993,30.75638491832309,1,"<img style=""max-width:500px;"" src=""files/WhatsApp Image 2023-06-19 at 13_1.43.57.jpeg""><img style=""max-width:500px;"" src=""files/WhatsApp Image 2023-06-19 at 13_1.43.41.jpeg""><img style=""max-width:500px;"" src=""files/WhatsApp Image 2023-06-19 at 13_1.43.03.jpeg""><img style=""max-width:500px;"" src=""files/WhatsApp Image 2023-06-19 at 13_1.42.53.jpeg"">"
Rivulets Substation,-25.43985113000855,30.75419913687229,1,"<img style=""max-width:500px;"" src=""files/WhatsApp Image 2023-06-19 at 13_1.31.01.jpeg""><img style=""max-width:500px;"" src=""files/WhatsApp Image 2023-06-19 at 13_1.30.05.jpeg""><img style=""max-width:500px;"" src=""files/WhatsApp Image 2023-06-19 at 13_1.29.39.jpeg""><img style=""max-width:500px;"" src=""files/WhatsApp Image 2023-06-19 at 13_1.28.52.jpeg""><img style=""max-width:500px;"" src=""files/WhatsApp Image 2023-06-19 at 13_1.28.29.jpeg"">"
Reception Relay Room,-25.4679346101444,30.71626969417514,1,"<img style=""max-width:500px;"" src=""files/WhatsApp Image 2023-06-19 at 14_1.25.31.jpeg""><img style=""max-width:500px;"" src=""files/WhatsApp Image 2023-06-19 at 14_1.25.10.jpeg""><img style=""max-width:500px;"" src=""files/WhatsApp Image 2023-06-19 at 14_1.24.55.jpeg""><img style=""max-width:500px;"" src=""files/WhatsApp Image 2023-06-19 at 14_1.24.30.jpeg"">"
Elandshoek,-25.50513954170793,30.70063509018492,1,"Elandshoek Relay room<img style=""max-width:500px;"" src=""files/WhatsApp Image 2023-06-19 at 15_1.05.33.jpeg""><img style=""max-width:500px;"" src=""files/WhatsApp Image 2023-06-19 at 15_1.05.01.jpeg""><img style=""max-width:500px;"" src=""files/WhatsApp Image 2023-06-19 at 15_1.04.51.jpeg""><img style=""max-width:500px;"" src=""files/WhatsApp Image 2023-06-19 at 15_1.04.13.jpeg""><img style=""max-width:500px;"" src=""files/WhatsApp Image 2023-06-19 at 15_1.01.51(1).jpeg""><img style=""max-width:500px;"" src=""files/WhatsApp Image 2023-06-19 at 15_1.01.51.jpeg""><img style=""max-width:500px;"" src=""files/WhatsApp Image 2023-06-19 at 15_1.01.50.jpeg"">"
Citrodora Relay Room,-25.54413517377354,30.68419542108767,1,"<img style=""max-width:500px;"" src=""files/WhatsApp Image 2023-06-19 at 15_1.56.52.jpeg""><img style=""max-width:500px;"" src=""files/WhatsApp Image 2023-06-19 at 15_1.56.34.jpeg""><img style=""max-width:500px;"" src=""files/WhatsApp Image 2023-06-19 at 15_1.56.07.jpeg""><img style=""max-width:500px;"" src=""files/WhatsApp Image 2023-06-19 at 15_1.55.54.jpeg""><img style=""max-width:500px;"" src=""files/WhatsApp Image 2023-06-19 at 15_1.55.40.jpeg"">"
Ngodwana Substation.,-25.5854567516067,30.63605884246315,1,"<img style=""max-width:500px;"" src=""files/WhatsApp Image 2023-06-19 at 16_1.43.20.jpeg""><img style=""max-width:500px;"" src=""files/WhatsApp Image 2023-06-19 at 16_1.42.57.jpeg""><img style=""max-width:500px;"" src=""files/WhatsApp Image 2023-06-19 at 16_1.42.34.jpeg"">


Can not walk around sub of overgrown bushes"
CTC GENERATOR NUMBER  02AG 100,-25.6405902327527,30.33315414718995,1,
CTC 11KV Substation 02AG 111,-25.640935,30.332403,1,"<img style=""max-width:500px;"" src=""files/WhatsApp Image 2025-04-14 at 14.52.59.jpeg""><img style=""max-width:500px;"" src=""files/WhatsApp Image 2025-04-14 at 14.52.42.jpeg""><img style=""max-width:500px;"" src=""files/WhatsApp Image 2025-04-14 at 14.52.29.jpeg""><img style=""max-width:500px;"" src=""files/WhatsApp Image 2025-04-14 at 14.52.20.jpeg"">"
Hemlock Relay Room,-25.59997632756074,30.57112122335315,1,"Windows broken
Gate not locked<img style=""max-width:500px;"" src=""files/WhatsApp Image 2023-06-19 at 17_1.16.03.jpeg""><img style=""max-width:500px;"" src=""files/WhatsApp Image 2023-06-19 at 17_1.15.49.jpeg""><img style=""max-width:500px;"" src=""files/WhatsApp Image 2023-06-19 at 17_1.15.41.jpeg"">"
Airlie Substation,-25.6051291850083,30.53020788068188,1,
Sycamore substation,-25.6081164,30.43494810000001,1,"<img style=""max-width:500px;"" src=""files/WhatsApp Image 2023-06-19 at 15_1.27.42(1).jpeg""><img style=""max-width:500px;"" src=""files/WhatsApp Image 2023-06-19 at 15_1.28.05(1).jpeg""><img style=""max-width:500px;"" src=""files/WhatsApp Image 2023-06-19 at 15_1.28.53.jpeg""><img style=""max-width:500px;"" src=""files/WhatsApp Image 2023-06-19 at 15_1.28.05.jpeg""><img style=""max-width:500px;"" src=""files/WhatsApp Image 2023-06-19 at 15_1.27.42.jpeg"">"
Waterval Onder Substation,-25.64612297326758,30.37355674967552,1,"<img style=""max-width:500px;"" src=""files/WhatsApp Image 2023-06-19 at 14_1.32.29.jpeg""><img style=""max-width:500px;"" src=""files/WhatsApp Image 2023-06-19 at 14_1.32.17.jpeg""><img style=""max-width:500px;"" src=""files/WhatsApp Image 2023-06-19 at 14_1.32.05.jpeg""><img style=""max-width:500px;"" src=""files/WhatsApp Image 2023-06-19 at 14_1.31.55.jpeg""><img style=""max-width:500px;"" src=""files/WhatsApp Image 2023-06-19 at 14_1.31.47.jpeg""><img style=""max-width:500px;"" src=""files/WhatsApp Image 2023-06-19 at 14_1.31.31.jpeg""><img style=""max-width:500px;"" src=""files/WhatsApp Image 2023-06-19 at 14_1.31.25.jpeg"">"
Waterval Boven Substation,-25.63963971084341,30.33522302853891,1,"<img style=""max-width:500px;"" src=""files/WhatsApp Image 2023-06-19 at 12_1.16.51.jpeg""><img style=""max-width:500px;"" src=""files/WhatsApp Image 2023-06-19 at 12_1.17.32.jpeg"">"
Waterval Boven Relay Room,-25.64141233346995,30.31406020422146,1,"<img style=""max-width:500px;"" src=""files/WhatsApp Image 2023-06-19 at 11_1.44.02.jpeg""><img style=""max-width:500px;"" src=""files/WhatsApp Image 2023-06-19 at 11_1.43.15.jpeg"">"
Machadodorp Substation,-25.65365225268275,30.26248650066406,1,"<img style=""max-width:500px;"" src=""files/WhatsApp Image 2023-06-19 at 10.12.42.jpeg""><img style=""max-width:500px;"" src=""files/WhatsApp Image 2023-06-19 at 10.11.03.jpeg""><img style=""max-width:500px;"" src=""files/WhatsApp Image 2023-06-19 at 10.10.54.jpeg""><img style=""max-width:500px;"" src=""files/WhatsApp Image 2023-06-19 at 10.10.05.jpeg"">"
Machadodorp Relay Room,-25.66169750217398,30.25160854186792,1,"<img style=""max-width:500px;"" src=""files/WhatsApp Image 2023-06-19 at 09.45.17.jpeg""><img style=""max-width:500px;"" src=""files/WhatsApp Image 2023-06-19 at 09.45.07.jpeg""><img style=""max-width:500px;"" src=""files/WhatsApp Image 2023-06-19 at 09.44.57.jpeg""><img style=""max-width:500px;"" src=""files/WhatsApp Image 2023-06-19 at 09.44.41.jpeg""><img style=""max-width:500px;"" src=""files/WhatsApp Image 2023-06-19 at 09.44.14.jpeg""><img style=""max-width:500px;"" src=""files/WhatsApp Image 2023-06-19 at 09.44.08.jpeg""><img style=""max-width:500px;"" src=""files/WhatsApp Image 2023-06-19 at 09.43.55(1).jpeg""><img style=""max-width:500px;"" src=""files/WhatsApp Image 2023-06-19 at 09.43.55.jpeg"">"
Fairview Substation,-25.71798391790867,30.21938474222265,1,"<img style=""max-width:500px;"" src=""files/WhatsApp Image 2023-06-19 at 08_1.51.05.jpeg""><img style=""max-width:500px;"" src=""files/WhatsApp Image 2023-06-19 at 08_1.50.49.jpeg""><img style=""max-width:500px;"" src=""files/WhatsApp Image 2023-06-19 at 08_1.50.16.jpeg""><img style=""max-width:500px;"" src=""files/WhatsApp Image 2023-06-19 at 08_1.50.01.jpeg""><img style=""max-width:500px;"" src=""files/WhatsApp Image 2023-06-19 at 08_1.49.35.jpeg""><img style=""max-width:500px;"" src=""files/WhatsApp Image 2023-06-19 at 08_1.48.10.jpeg"">"
Dalmanuta 132kv traction substation.,-25.75566533079175,30.15133389714687,1,"Dalmanuta 132kv traction substation. Palisade fencing damaged . No lighting . Stable for horses behind the station<img style=""max-width:500px;"" src=""files/WhatsApp Image 2023-06-17 at 12.42.34(1).jpeg""><img style=""max-width:500px;"" src=""files/WhatsApp Image 2023-06-17 at 12.41.57(1).jpeg""><img style=""max-width:500px;"" src=""files/WhatsApp Image 2023-06-17 at 12.41.37(1).jpeg""><img style=""max-width:500px;"" src=""files/WhatsApp Image 2023-06-17 at 12.41.28(1).jpeg""><img style=""max-width:500px;"" src=""files/WhatsApp Image 2023-06-17 at 12.40.53(1).jpeg""><img style=""max-width:500px;"" src=""files/WhatsApp Image 2023-06-17 at 12.40.39(1).jpeg""><img style=""max-width:500px;"" src=""files/WhatsApp Image 2023-06-17 at 12.39.55(1).jpeg""><img style=""max-width:500px;"" src=""files/WhatsApp Image 2023-06-17 at 12.39.06(1).jpeg""><img style=""max-width:500px;"" src=""files/WhatsApp Image 2023-06-17 at 12.38.29(1).jpeg""><img style=""max-width:500px;"" src=""files/WhatsApp Image 2023-06-17 at 12.38.04(1).jpeg""><img style=""max-width:500px;"" src=""files/WhatsApp Image 2023-06-17 at 12.37.47(1).jpeg"">"
Belfast Substation,-25.7143821885756,30.07394313368368,1,"<img style=""max-width:500px;"" src=""files/WhatsApp Image 2023-06-17 at 11.11.00(1).jpeg""><img style=""max-width:500px;"" src=""files/WhatsApp Image 2023-06-17 at 11.10.44(1).jpeg""><img style=""max-width:500px;"" src=""files/WhatsApp Image 2023-06-17 at 11.10.10(2).jpeg""><img style=""max-width:500px;"" src=""files/WhatsApp Image 2023-06-17 at 11.09.57(2).jpeg""><img style=""max-width:500px;"" src=""files/WhatsApp Image 2023-06-17 at 11.10.10(1).jpeg""><img style=""max-width:500px;"" src=""files/WhatsApp Image 2023-06-17 at 11.09.57(1).jpeg"">"
Relay Room,-25.71261101710908,30.07195312489683,1,"KMP 103/7<img style=""max-width:500px;"" src=""files/WhatsApp Image 2023-06-17 at 11.07.00(1).jpeg""><img style=""max-width:500px;"" src=""files/WhatsApp Image 2023-06-17 at 11.06.33(1).jpeg""><img style=""max-width:500px;"" src=""files/WhatsApp Image 2023-06-17 at 11.06.20(1).jpeg""><img style=""max-width:500px;"" src=""files/WhatsApp Image 2023-06-17 at 11.06.01(1).jpeg"">"
Sunbury Substation,-25.75835936607728,29.98989589552966,1,"<img style=""max-width:500px;"" src=""files/WhatsApp Image 2023-06-15 at 15.21.56.jpeg""><img style=""max-width:500px;"" src=""files/WhatsApp Image 2023-06-15 at 15.21.44.jpeg""><img style=""max-width:500px;"" src=""files/WhatsApp Image 2023-06-15 at 15.21.14(1).jpeg""><img style=""max-width:500px;"" src=""files/WhatsApp Image 2023-06-15 at 15.20.36.jpeg""><img style=""max-width:500px;"" src=""files/WhatsApp Image 2023-06-15 at 15.20.35.jpeg""><img style=""max-width:500px;"" src=""files/WhatsApp Image 2023-06-15 at 15.20.34.jpeg""><img style=""max-width:500px;"" src=""files/WhatsApp Image 2023-06-15 at 15.20.33(1).jpeg""><img style=""max-width:500px;"" src=""files/WhatsApp Image 2023-06-15 at 15.20.33.jpeg""><img style=""max-width:500px;"" src=""files/WhatsApp Image 2023-06-15 at 15.20.32.jpeg""><img style=""max-width:500px;"" src=""files/WhatsApp Image 2023-06-15 at 15.20.31.jpeg""><img style=""max-width:500px;"" src=""files/WhatsApp Image 2023-06-15 at 15.21.14.jpeg"">


No power at substation  Sunbury. Trenches everywhere signal cable stolen"
Wonderfontein Substation,-25.80919577271146,29.89213613605492,1,
Arnot Substation,-25.78064110285399,29.78399854159634,1,"<img style=""max-width:500px;"" src=""files/WhatsApp Image 2023-06-16 at 11.07.07.jpeg""><img style=""max-width:500px;"" src=""files/WhatsApp Image 2023-06-16 at 11.07.27.jpeg""><img style=""max-width:500px;"" src=""files/WhatsApp Image 2023-06-16 at 11.07.36.jpeg"">"
Cashome Relay Room (Vandalised),-25.7632684377329,29.71439451454521,1,"<img style=""max-width:500px;"" src=""files/WhatsApp Image 2023-06-16 at 12.31.31.jpeg""><img style=""max-width:500px;"" src=""files/WhatsApp Image 2023-06-16 at 12.30.42.jpeg""><img style=""max-width:500px;"" src=""files/WhatsApp Image 2023-06-16 at 12.30.21.jpeg""><img style=""max-width:500px;"" src=""files/WhatsApp Image 2023-06-16 at 12.29.52.jpeg""><img style=""max-width:500px;"" src=""files/WhatsApp Image 2023-06-16 at 12.29.36.jpeg""><img style=""max-width:500px;"" src=""files/WhatsApp Image 2023-06-16 at 12.28.53.jpeg""><img style=""max-width:500px;"" src=""files/WhatsApp Image 2023-06-16 at 12.28.41.jpeg"">"
Pan Substation,-25.75981484139565,29.66892393103362,1,"<img style=""max-width:500px;"" src=""files/WhatsApp Image 2023-06-16 at 13.15.28(1).jpeg""><img style=""max-width:500px;"" src=""files/WhatsApp Image 2023-06-16 at 13.14.38(2).jpeg""><img style=""max-width:500px;"" src=""files/WhatsApp Image 2023-06-16 at 13.14.38(1).jpeg""><img style=""max-width:500px;"" src=""files/WhatsApp Image 2023-06-16 at 13.14.24(1).jpeg""><img style=""max-width:500px;"" src=""files/WhatsApp Image 2023-06-16 at 13.13.36(1).jpeg"">"
Dewent Substation,-25.7502170618517,29.55630999116278,1,"<img style=""max-width:500px;"" src=""files/WhatsApp Image 2023-06-16 at 13.35.05(1).jpeg""><img style=""max-width:500px;"" src=""files/WhatsApp Image 2023-06-16 at 13.34.57(1).jpeg""><img style=""max-width:500px;"" src=""files/WhatsApp Image 2023-06-16 at 13.34.12(1).jpeg""><img style=""max-width:500px;"" src=""files/WhatsApp Image 2023-06-16 at 13.33.26(1).jpeg""><img style=""max-width:500px;"" src=""files/WhatsApp Image 2023-06-16 at 13.33.12(1).jpeg"">"
Derwent Relay Room,-25.75317736881336,29.55230944539263,1,"<img style=""max-width:500px;"" src=""files/WhatsApp Image 2023-06-16 at 13.16.29(1).jpeg""><img style=""max-width:500px;"" src=""files/WhatsApp Image 2023-06-16 at 13.21.22(1).jpeg""><img style=""max-width:500px;"" src=""files/WhatsApp Image 2023-06-16 at 13.21.08(1).jpeg""><img style=""max-width:500px;"" src=""files/WhatsApp Image 2023-06-16 at 13.20.37(1).jpeg"">"
Middelburg Substation,-25.77616856191374,29.47107048785768,1,
Uitkyk Substation,-25.82785211943732,29.41054225941803,1,"Horse stall next to substation<img style=""max-width:500px;"" src=""files/WhatsApp Image 2023-06-16 at 10.56.04.jpeg""><img style=""max-width:500px;"" src=""files/WhatsApp Image 2023-06-16 at 10.55.24.jpeg""><img style=""max-width:500px;"" src=""files/WhatsApp Image 2023-06-16 at 10.54.55.jpeg""><img style=""max-width:500px;"" src=""files/WhatsApp Image 2023-06-16 at 10.54.40.jpeg"">"
Olifantsrivier Substation,-25.81310848737493,29.300710428044,1,"<img style=""max-width:500px;"" src=""files/WhatsApp Image 2023-06-15 at 16.03.26.jpeg""><img style=""max-width:500px;"" src=""files/WhatsApp Image 2023-06-15 at 16.03.09.jpeg""><img style=""max-width:500px;"" src=""files/WhatsApp Image 2023-06-15 at 16.02.43(1).jpeg""><img style=""max-width:500px;"" src=""files/WhatsApp Image 2023-06-15 at 16.02.43.jpeg""><img style=""max-width:500px;"" src=""files/WhatsApp Image 2023-06-15 at 16.02.22.jpeg"">"
Leybank Relay,-25.88256354491052,29.19664010635125,1,
Witbank Substation,-25.88559871837181,29.2009247124722,1,"<img style=""max-width:500px;"" src=""files/WhatsApp Image 2023-09-12 at 08.03.28.jpeg""><img style=""max-width:500px;"" src=""files/WhatsApp Image 2023-09-12 at 08.03.31.jpeg""><img style=""max-width:500px;"" src=""files/WhatsApp Image 2023-09-12 at 08.03.30.jpeg""><img style=""max-width:500px;"" src=""files/WhatsApp Image 2023-09-12 at 08.03.29(1).jpeg""><img style=""max-width:500px;"" src=""files/WhatsApp Image 2023-09-12 at 08.03.29.jpeg"">"
Clewer Relay Room,-25.90226507362427,29.13389982055534,1,"<img style=""max-width:500px;"" src=""files/WhatsApp Image 2023-06-15 at 13.04.42.jpeg""><img style=""max-width:500px;"" src=""files/WhatsApp Image 2023-06-15 at 13.04.12.jpeg""><img style=""max-width:500px;"" src=""files/WhatsApp Image 2023-06-15 at 13.03.49.jpeg""><img style=""max-width:500px;"" src=""files/WhatsApp Image 2023-06-15 at 13.03.35.jpeg"">"
Balmoral Relay Room,-25.86156238686223,28.97642575375991,1,"<img style=""max-width:500px;"" src=""files/WhatsApp Image 2025-03-13 at 02.28.06.jpeg"">"
Crown Douglas Substation (In Use),-25.84740880951447,28.9221080793013,1,"<img style=""max-width:500px;"" src=""files/WhatsApp Image 2023-06-15 at 08.50.54.jpeg""><img style=""max-width:500px;"" src=""files/WhatsApp Image 2023-06-15 at 08.47.57.jpeg""><img style=""max-width:500px;"" src=""files/WhatsApp Image 2023-06-15 at 08.47.47.jpeg""><img style=""max-width:500px;"" src=""files/WhatsApp Image 2023-06-15 at 08.46.59.jpeg""><img style=""max-width:500px;"" src=""files/WhatsApp Image 2023-06-15 at 08.46.10.jpeg""><img style=""max-width:500px;"" src=""files/WhatsApp Image 2023-06-15 at 08.45.53.jpeg""><img style=""max-width:500px;"" src=""files/WhatsApp Image 2023-06-15 at 08.45.22.jpeg"">"
Bronkhorspruit Substation,-25.80608616073822,28.78677824653021,1,"<img style=""max-width:500px;"" src=""files/WhatsApp Image 2023-06-13 at 15.39.48.jpeg""><img style=""max-width:500px;"" src=""files/WhatsApp Image 2023-06-13 at 15.39.17.jpeg""><img style=""max-width:500px;"" src=""files/WhatsApp Image 2023-06-13 at 15.39.08.jpeg""><img style=""max-width:500px;"" src=""files/WhatsApp Image 2023-06-13 at 15.38.51.jpeg""><img style=""max-width:500px;"" src=""files/WhatsApp Image 2023-06-13 at 15.38.35.jpeg""><img style=""max-width:500px;"" src=""files/WhatsApp Image 2023-06-13 at 15.32.10.jpeg""><img style=""max-width:500px;"" src=""files/WhatsApp Image 2023-06-13 at 15.31.52.jpeg"">"
Forfar Substation,-25.77288700106957,28.63306097858186,1,"<img style=""max-width:500px;"" src=""files/WhatsApp Image 2023-06-13 at 13.48.54(1).jpeg""><img style=""max-width:500px;"" src=""files/WhatsApp Image 2023-06-13 at 13.48.43(1).jpeg""><img style=""max-width:500px;"" src=""files/WhatsApp Image 2023-06-13 at 13.48.08(1).jpeg""><img style=""max-width:500px;"" src=""files/WhatsApp Image 2023-06-13 at 13.48.01(1).jpeg""><img style=""max-width:500px;"" src=""files/WhatsApp Image 2023-06-13 at 13.47.58(1).jpeg"">

Most of the fence intact. About 3 places pallesades broken"
Weskas Relay Room,-25.87847094624358,29.20435543632743,,
Ngodwana Relay Room,-25.58719097671996,30.63258012017294,,
Boulders Relay Room,-25.54398517933799,31.30640098226826,,
Komatipoort Relay Room,-25.43816939067363,31.95520414693343,,
Nelspruit Relay Room,-25.46563441560484,30.97809469292854,,
